[
  {
    "Latitude": "55.752364",
    "Longitude": "49.171021",
    "Address": "420101, РТ, г. Казань, ул. Карбышева, д. 12А",
    "Label": "ГАУЗ \"Межрегиональный Клинико-Диагностический Центр\"",
    "Id": 1
  },
  {
    "Latitude": "55.733305",
    "Longitude": "49.184208",
    "Address": "420064, РТ, г. Казань, ул. Оренбургский тракт, д. 138",
    "Label": "ГАУЗ \"Республиканская клиническая больница\"",
    "Id": 2
  },
  {
    "Latitude": "55.764136",
    "Longitude": "49.121182",
    "Address": "420021, РТ, г. Казань, ул. Ватутина, д. 13",
    "Label": "ГАУЗ \"Республиканский клинический неврологический центр\"",
    "Id": 3
  },
  {
    "Latitude": "55.789218",
    "Longitude": "49.13498",
    "Address": "420012, РТ, г. Казань, ул. Бутлерова, д. 41",
    "Label": "ГАУЗ \"Республиканская клиническая  офтальмологическая  больница МЗ РТ\"",
    "Id": 4
  },
  {
    "Latitude": "55.762784",
    "Longitude": "49.217643",
    "Address": "420140, РТ, г. Казань, пр-кт Победы, д. 83",
    "Label": "ГАУЗ \"Республиканская клиническая инфекционная больница им. Агафонова\"",
    "Id": 5
  },
  {
    "Latitude": "55.733305",
    "Longitude": "49.184208",
    "Address": "420059, РТ, г. Казань, ул. Оренбургский тракт, д. 140",
    "Label": "ГАУЗ \"Детская республиканская клиническая больница МЗ РТ\"",
    "Id": 6
  },
  {
    "Latitude": "55.753534",
    "Longitude": "49.207861",
    "Address": "420110, РТ, г. Казань, ул. Р. Зорге, д. 55",
    "Label": "ГАУЗ \"Детская республиканская клиническая больница МЗ РТ\"",
    "Id": 7
  },
  {
    "Latitude": "55.78728",
    "Longitude": "49.226204",
    "Address": "420083, РТ, г. Казань, ул. Х. Бигичева, д. 20",
    "Label": "ГАУЗ \"Детская республиканская клиническая больница МЗ РТ\"",
    "Id": 8
  },
  {
    "Latitude": "55.812514",
    "Longitude": "49.174857",
    "Address": "420029, РТ, г. Казань, Сибирский тракт, д. 29",
    "Label": "ГАУЗ \"Республиканский клинический онкологический диспансер МЗ РТ\"",
    "Id": 9
  },
  {
    "Latitude": "55.791415",
    "Longitude": "49.138538",
    "Address": "420012, РТ, г. Казань, ул. Толстого, д. 4",
    "Label": "ГАУЗ \"Республиканский клинический кожно-венерологический диспансер\"",
    "Id": 10
  },
  {
    "Latitude": "55.826716",
    "Longitude": "49.06864",
    "Address": "420095, РТ, г. Казань, ул. Серова, д. 37",
    "Label": "ГАУЗ \"Республиканский клинический кожно-венерологический диспансер\"",
    "Id": 11
  },
  {
    "Latitude": "55.748012",
    "Longitude": "49.220266",
    "Address": "420110, РТ, г. Казань, ул. Сафиуллина, д. 32а",
    "Label": "ГАУЗ \"Республиканский клинический кожно-венерологический диспансер\"",
    "Id": 12
  },
  {
    "Latitude": "55.809803",
    "Longitude": "49.199524",
    "Address": "420061, РТ, г. Казань, ул. Губкина, д. 39\/1",
    "Label": "ГАУЗ \"Республиканский клинический кожно-венерологический диспансер\"",
    "Id": 13
  },
  {
    "Latitude": "55.840563",
    "Longitude": "49.101015",
    "Address": "420094, РТ, г. Казань, ул. Короленко, д. 54",
    "Label": "ГАУЗ \"Республиканский клинический кожно-венерологический диспансер\"",
    "Id": 14
  },
  {
    "Latitude": "55.798232",
    "Longitude": "49.117158",
    "Address": "420111, РТ, г. Казань, ул. Б. Красная, д. 11",
    "Label": "ГАУЗ \"Республиканский клинический кожно-венерологический диспансер\"",
    "Id": 15
  },
  {
    "Latitude": "55.824243",
    "Longitude": "49.035465",
    "Address": "420004, РТ, г. Казань, ул. Маршрутная, д. 7",
    "Label": "ГАУЗ \"Республиканский клинический кожно-венерологический диспансер\"",
    "Id": 16
  },
  {
    "Latitude": "55.790681",
    "Longitude": "49.149084",
    "Address": "420111, РТ, г. Казань, ул. Чехова,  1 А",
    "Label": "Медико-санитарная часть федерального государственного автономного образовательного учреждения высшего образования \"Казанский(Приволжский)федеральный университет\"",
    "Id": 17
  },
  {
    "Latitude": "55.796896",
    "Longitude": "49.132312",
    "Address": "420111, РТ, г. Казань, ул. Большая Красная, д. 51",
    "Label": "Медико-санитарная часть федерального государственного автономного образовательного учреждения высшего образования \"Казанский(Приволжский)федеральный университет\"",
    "Id": 18
  },
  {
    "Latitude": "55.791906",
    "Longitude": "49.150602",
    "Address": "420111, РТ, г. Казань, ул. Ершова, д. 2",
    "Label": "Медико-санитарная часть федерального государственного автономного образовательного учреждения высшего образования \"Казанский(Приволжский)федеральный университет\"",
    "Id": 19
  },
  {
    "Latitude": "55.791425",
    "Longitude": "49.152057",
    "Address": "420097, РТ, г. Казань, ул. Вишневского, д. 2а",
    "Label": "Медико-санитарная часть федерального государственного автономного образовательного учреждения высшего образования \"Казанский(Приволжский)федеральный университет\"",
    "Id": 20
  },
  {
    "Latitude": "55.787832",
    "Longitude": "49.150198",
    "Address": "420043, РТ, г. Казань, ул. Достоевского, д. 44\/6",
    "Label": "Медико-санитарная часть федерального государственного автономного образовательного учреждения высшего образования \"Казанский(Приволжский)федеральный университет\"",
    "Id": 21
  },
  {
    "Latitude": "55.789254",
    "Longitude": "49.158426",
    "Address": "420097, РТ, г. Казань, ул. Шмидта, д. 31",
    "Label": "Медико-санитарная часть федерального государственного автономного образовательного учреждения высшего образования \"Казанский(Приволжский)федеральный университет\"",
    "Id": 22
  },
  {
    "Latitude": "55.79598",
    "Longitude": "49.135367",
    "Address": "420015, РТ, г. Казань, ул. Муштари, д. 33",
    "Label": "Поликлиника ФГБУН  «ФИЦ» Казанский научный центр РАН»",
    "Id": 23
  },
  {
    "Latitude": "55.835104",
    "Longitude": "49.137783",
    "Address": "420103,РТ, г. Казань, ул. Чуйкова, д. 54",
    "Label": "ГАУЗ \"Городская клиническая больница №7\"",
    "Id": 24
  },
  {
    "Latitude": "55.836413",
    "Longitude": "49.080192",
    "Address": "420039, РТ, г. Казань, ул. Декабристов, д. 191\/93",
    "Label": "ГАУЗ \"Городская клиническая больница №7\"",
    "Id": 25
  },
  {
    "Latitude": "55.835331",
    "Longitude": "49.145239",
    "Address": "420132, РТ, г. Казань, ул. Чуйкова, д. 56",
    "Label": "ГАУЗ \"Городская клиническая больница №7\"",
    "Id": 26
  },
  {
    "Latitude": "55.838501",
    "Longitude": "49.148356",
    "Address": "420132, РТ, г. Казань, ул. Адоратского, д. 30А",
    "Label": "ГАУЗ \"Городская клиническая больница №7\"",
    "Id": 27
  },
  {
    "Latitude": "55.836448",
    "Longitude": "49.079087",
    "Address": "420132, РТ, г. Казань, ул. Гагарина, д. 95",
    "Label": "ГАУЗ \"Городская клиническая больница №7\"",
    "Id": 28
  },
  {
    "Latitude": "55.802745",
    "Longitude": "49.174749",
    "Address": "420061, РТ, г. Казань, ул. Б. Галеева , д. 11",
    "Label": "ГАУЗ \"Детская городская больница №8\"",
    "Id": 29
  },
  {
    "Latitude": "55.858043",
    "Longitude": "49.077857",
    "Address": "420036, РТ, г. Казань, ул. Лечебная, д. 7",
    "Label": "ОАО \"Городская клиническая больница № 12\"",
    "Id": 30
  },
  {
    "Latitude": "55.758681",
    "Longitude": "49.187226",
    "Address": "420101, РТ, г. Казань, ул. Х. Мавлютова, д. 2",
    "Label": "ГАУЗ \"Центральная многопрофильная ГКБ №18\"",
    "Id": 31
  },
  {
    "Latitude": "55.802244",
    "Longitude": "49.182097",
    "Address": "420061, РТ, г. Казань, ул. Николая Ершова, д. 65",
    "Label": "ЧУЗ Клиническая больница «РЖД-Медицина» г. Казань",
    "Id": 32
  },
  {
    "Latitude": "55.835427",
    "Longitude": "49.066205",
    "Address": "420039, РТ, г. Казань, ул. Исаева, д. 5",
    "Label": "ГАУЗ \"Госпиталь для ветеранов войн\" г.Казани",
    "Id": 33
  },
  {
    "Latitude": "55.786541",
    "Longitude": "49.133085",
    "Address": "РТ, г Казань, пер. Катановский, д 4",
    "Label": "ООО \"Импульс-Реа\"",
    "Id": 34
  },
  {
    "Latitude": "55.766309",
    "Longitude": "49.176357",
    "Address": "420101, РТ, г. Казань, ул. Карбышева, д. 12",
    "Label": "ГАУЗ \"Городская поликлиника №18\"",
    "Id": 35
  },
  {
    "Latitude": "55.743928",
    "Longitude": "49.22271",
    "Address": "420139, РТ, г. Казань, ул. Зорге, д. 103",
    "Label": "ГАУЗ \"Городская поликлиника №21\"",
    "Id": 36
  },
  {
    "Latitude": "55.742772",
    "Longitude": "49.178082",
    "Address": "420059, РТ, г. Казань, Оренбургский тракт, д. 95",
    "Label": "ГАУЗ \"Городская поликлиника №21\"",
    "Id": 37
  },
  {
    "Latitude": "55.796425",
    "Longitude": "49.139364",
    "Address": "420015, РТ, г. Казань, ул. Большая красная, д. 67",
    "Label": "ФБУН \"Казанский научно-исследовательский институт эпидемиологии и микробиологии МЗ РТ»",
    "Id": 38
  },
  {
    "Latitude": "55.783762",
    "Longitude": "49.176914",
    "Address": "420095, РТ, г. Казань, ул. Седова, д. 3",
    "Label": "ГАУЗ \"Казанский городской эндокринологический диспансер\"",
    "Id": 39
  },
  {
    "Latitude": "55.785306",
    "Longitude": "49.178692",
    "Address": "420034, РТ, г. Казань, ул. Седова, д. 51\/11",
    "Label": "ООО \"бу\"",
    "Id": 40
  },
  {
    "Latitude": "55.823363",
    "Longitude": "49.115397",
    "Address": "420124, РТ, г. Казань, ул. Меридианная, д. 11Б",
    "Label": "ООО \"Айболит\"",
    "Id": 41
  },
  {
    "Latitude": "55.791673",
    "Longitude": "49.222234",
    "Address": "420100, РТ, г. Казань, ул. Пр. Победы, д. 182Б",
    "Label": "ООО \"Айболит\"",
    "Id": 42
  },
  {
    "Latitude": "55.747616",
    "Longitude": "49.196605",
    "Address": "420101, РТ, г. Казань, ул. Сыртлановой, д. 8",
    "Label": "ООО \"Айболит\"",
    "Id": 43
  },
  {
    "Latitude": "55.82046",
    "Longitude": "49.05062",
    "Address": "420033, РТ, г. Казань, ул. Болотникова, д. 9",
    "Label": "ООО \"Айболит\"",
    "Id": 44
  },
  {
    "Latitude": "55.789284",
    "Longitude": "49.179573",
    "Address": "420073, РТ, г. Казань, ул. Курская, д. 8А",
    "Label": "ООО \"Айболит\"",
    "Id": 45
  },
  {
    "Latitude": "55.835235",
    "Longitude": "49.102165",
    "Address": "420094, РТ, г. Казань, ул. Чуйкова, д. 2а",
    "Label": "ООО \"Айболит\"",
    "Id": 46
  },
  {
    "Latitude": "55.859817",
    "Longitude": "49.097997",
    "Address": "420127, РТ, г. Казань, ул. Максимова, д. 1",
    "Label": "ООО \"Айболит\"",
    "Id": 47
  },
  {
    "Latitude": "55.777631",
    "Longitude": "49.133175",
    "Address": "420107, РТ, г. Казань, ул. Т. Миннуллина, д. 8",
    "Label": "ООО \"ЛДЦ \"Биомед\"",
    "Id": 48
  },
  {
    "Latitude": "55.77758",
    "Longitude": "49.232546",
    "Address": "420100, РТ, г. Казань, ул. Закиева, д. 41а",
    "Label": "ООО \"ЛДЦ \"Биомед\"",
    "Id": 49
  },
  {
    "Latitude": "55.824203",
    "Longitude": "49.070661",
    "Address": "420102, РТ, г. Казань, ул. Серова, д. 22\/24",
    "Label": "ООО \"ЛДЦ \"Биомед\"",
    "Id": 50
  },
  {
    "Latitude": "55.776092",
    "Longitude": "49.142356",
    "Address": "420049, РТ, г. Казань, ул. Назарбаева, д. 10",
    "Label": "ООО \"ЛДЦ \"Биомед\"",
    "Id": 51
  },
  {
    "Latitude": "55.747231",
    "Longitude": "49.198123",
    "Address": "420138, РТ, г. Казань, ул. Сыртлановой, д. 16",
    "Label": "ООО \"ЛДЦ \"Биомед\"",
    "Id": 52
  },
  {
    "Latitude": "55.827646",
    "Longitude": "49.15875",
    "Address": "420133, РТ, г. Казань, ул. Гаврилова, д. 1",
    "Label": "ООО \"ЛДЦ \"Биомед\"",
    "Id": 53
  },
  {
    "Latitude": "55.839633",
    "Longitude": "49.081854",
    "Address": "420039, РТ, г. Казань, ул. Декабристов, д. 180",
    "Label": "ООО \"ЛДЦ \"Биомед\"",
    "Id": 54
  },
  {
    "Latitude": "55.863833",
    "Longitude": "49.085968",
    "Address": "420037, РТ, г. Казань, ул. Ленинградская, д. 31",
    "Label": "ООО \"ЛДЦ \"Биомед\"",
    "Id": 55
  },
  {
    "Latitude": "55.786318",
    "Longitude": "49.189876",
    "Address": "420081, РТ, г. Казань, ул. А. Камалеева, д. 28\/9",
    "Label": "ООО \"ЛДЦ \"Биомед\"",
    "Id": 56
  },
  {
    "Latitude": "55.866935",
    "Longitude": "49.226546",
    "Address": "420075, РТ, г. Казань, ул. Правды, д. 6",
    "Label": "ООО \"ЛДЦ \"Биомед\"",
    "Id": 57
  },
  {
    "Latitude": "55.79303",
    "Longitude": "49.172018",
    "Address": "420081,РТ, г. Казань, ул. Гвардейская, д. 1\/24",
    "Label": "ООО \"Здоровье семьи\"",
    "Id": 58
  },
  {
    "Latitude": "55.819853",
    "Longitude": "49.113151",
    "Address": "420066, РТ, г. Казань, ул. Чистопольская, д. 15",
    "Label": "ООО \"Здоровье семьи\"",
    "Id": 59
  },
  {
    "Latitude": "55.865379",
    "Longitude": "49.22545",
    "Address": "420071, РТ, г. Казань, ул. Мира, д. 24",
    "Label": "ООО \"Здоровье Семьи Д\"",
    "Id": 60
  },
  {
    "Latitude": "55.829583",
    "Longitude": "49.059091",
    "Address": "420095, РТ, г. Казань, ул. Кулахметова, д. 25, корп. 2",
    "Label": "ООО \"Здоровье Семьи М\"",
    "Id": 61
  },
  {
    "Latitude": "55.833734",
    "Longitude": "49.082923",
    "Address": "420080, РТ, г. Казань, ул. Восстания, д. 38\/5",
    "Label": "ООО \"Здоровье семьи\"- ООО \"Клиник Сити\"",
    "Id": 62
  },
  {
    "Latitude": "55.748584",
    "Longitude": "49.224812",
    "Address": "420141, РТ, г. Казань, ул. Ю. Фучика, д. 50",
    "Label": "ООО \"Здоровье семьи\" -ООО «Семейная клиника»",
    "Id": 63
  },
  {
    "Latitude": "55.822321",
    "Longitude": "49.081567",
    "Address": "420034, РТ, г. Казань, ул. 2-я Юго-Западная, д. 35",
    "Label": "ООО \"Здоровье Семьи К\"",
    "Id": 64
  },
  {
    "Latitude": "55.818822",
    "Longitude": "49.122395",
    "Address": "420018, РТ, г. Казань, ул. Чистопольская , д. 38",
    "Label": "ООО \"Звезда\"",
    "Id": 65
  },
  {
    "Latitude": "55.798546",
    "Longitude": "49.191152",
    "Address": "420061, РТ, г. Казань, ул. Космонавтов, д. 16",
    "Label": "ООО \"Звезда\"",
    "Id": 66
  },
  {
    "Latitude": "55.820708",
    "Longitude": "49.053988",
    "Address": "420033, РТ, г. Казань, ул. Фрунзе, д. 17",
    "Label": "ООО \"Звезда\"",
    "Id": 67
  },
  {
    "Latitude": "55.795742",
    "Longitude": "49.128369",
    "Address": "420015, РТ, г. Казань, ул. К. Маркса, д. 46",
    "Label": "ООО \"Звезда\"",
    "Id": 68
  },
  {
    "Latitude": "55.8262",
    "Longitude": "49.132501",
    "Address": "420103, РТ, г. Казань, ул. Ямашева, д. 67, офис 1",
    "Label": "ООО \"Ситилаб\"",
    "Id": 69
  },
  {
    "Latitude": "55.748569",
    "Longitude": "49.203459",
    "Address": "420138, РТ, г. Казань, пр-кт Победы, д. 19",
    "Label": "ООО \"Ситилаб\"",
    "Id": 70
  },
  {
    "Latitude": "55.81038",
    "Longitude": "49.271884",
    "Address": "420083, РТ, г. Казань, ул. Интернациональная, д. 43",
    "Label": "ООО \"Ситилаб\"",
    "Id": 71
  },
  {
    "Latitude": "55.864545",
    "Longitude": "49.085923",
    "Address": "420037, РТ, г. Казань, ул. Беломорская, д. 6",
    "Label": "ООО \"Ситилаб\"",
    "Id": 72
  },
  {
    "Latitude": "55.788419",
    "Longitude": "49.138044",
    "Address": "420012, РТ, г. Казань, ул. Муштари, д. 4",
    "Label": "ООО \"КАМ\"",
    "Id": 73
  },
  {
    "Latitude": "55.786759",
    "Longitude": "49.112037",
    "Address": "420021, РТ, г. Казань, ул. Г. Камала, д. 4а",
    "Label": "ООО \"КАДУЦЕЙ\"",
    "Id": 74
  },
  {
    "Latitude": "55.758412",
    "Longitude": "49.185879",
    "Address": "420101, РТ, г. Казань, ул. Мавлютова, д. 2, стр. Ж",
    "Label": "ООО \"Салюшинс\"",
    "Id": 75
  },
  {
    "Latitude": "55.832303",
    "Longitude": "49.073904",
    "Address": "420095, РТ, г. Казань, ул. Восход, д. 16",
    "Label": "ООО \"НЕОДЕНТ\"",
    "Id": 76
  },
  {
    "Latitude": "55.82046",
    "Longitude": "49.05062",
    "Address": "420033, РТ, г. Казань, ул. Болотникова, д. 9",
    "Label": "ООО  МСП \"Дентиатр\"",
    "Id": 77
  },
  {
    "Latitude": "55.825851",
    "Longitude": "49.122709",
    "Address": "420124, РТ, г. Казань, пр-кт Ямашева, д. 49б",
    "Label": "ООО Стоматология \"Дентал-Клиник\"",
    "Id": 78
  },
  {
    "Latitude": "55.823348",
    "Longitude": "49.122656",
    "Address": "420126, РТ, г. Казань, ул. Четаева, д. 44\/2",
    "Label": "ООО \"Стоматологическая клиника \"ПримаДента\"",
    "Id": 79
  },
  {
    "Latitude": "55.823287",
    "Longitude": "49.125728",
    "Address": "420124, РТ, г. Казань, ул. Четаева, д. 28, офис 11",
    "Label": "ООО \"Карат\"",
    "Id": 80
  },
  {
    "Latitude": "55.753747",
    "Longitude": "49.200809",
    "Address": "420104, РТ, г. Казань, ул. Зорге, д. 50, офис 100",
    "Label": "ООО \"Карат+\"",
    "Id": 81
  },
  {
    "Latitude": "55.785316",
    "Longitude": "49.134738",
    "Address": "420012, РТ, г. Казань, ул. Ульянова-Ленина, д. 34",
    "Label": "ООО \"Генезис-групп\"",
    "Id": 82
  },
  {
    "Latitude": "55.786986",
    "Longitude": "49.188556",
    "Address": "420073, РТ, г. Казань, ул. А. Камалеева, д. 26\/12",
    "Label": "ООО \"ЭРДА\"",
    "Id": 83
  },
  {
    "Latitude": "55.784491",
    "Longitude": "49.149353",
    "Address": "420043, РТ, г. Казань, ул. Вишневского, д. 14",
    "Label": "ООО \"СтомАрт\"",
    "Id": 84
  },
  {
    "Latitude": "55.824597",
    "Longitude": "49.131881",
    "Address": "420115, РТ, г. Казань, ул. Амирхана, д. 21",
    "Label": "ООО \"МСП \"СТОМЭЛ\"",
    "Id": 85
  },
  {
    "Latitude": "55.797402",
    "Longitude": "49.133031",
    "Address": "420015, РТ, г. Казань, ул. Гоголя, д. 21,",
    "Label": "ООО \"МСП \"СТОМЭЛ\"",
    "Id": 86
  },
  {
    "Latitude": "55.802244",
    "Longitude": "49.182097",
    "Address": "420061, РТ, г. Казань, ул. Н. Ершова, д. 65",
    "Label": "ООО \"ЛДЦ МИБС-Казань\"",
    "Id": 87
  },
  {
    "Latitude": "55.835427",
    "Longitude": "49.066205",
    "Address": "420039, РТ, г. Казань, ул. Исаева, д. 5",
    "Label": "ООО \"ЛДЦ МИБС-Казань\"",
    "Id": 88
  },
  {
    "Latitude": "55.809484",
    "Longitude": "49.198159",
    "Address": "420061, РТ, г. Казань, ул. Ак. Губкина, д. 37, офис 1",
    "Label": "ООО \"Артмед\"",
    "Id": 89
  },
  {
    "Latitude": "55.790585",
    "Longitude": "49.168604",
    "Address": "420073, РТ, г. Казань, ул. Гвардейская, д. 16б, кв. 14",
    "Label": "ООО \"Рас-Дент\"",
    "Id": 90
  },
  {
    "Latitude": "55.838804",
    "Longitude": "49.089732",
    "Address": "420057, РТ, г. Казань, ул. Гагарина, д. 20А",
    "Label": "ООО \"Стоматологическая поликлиника №9\" г. Казань",
    "Id": 91
  },
  {
    "Latitude": "55.819833",
    "Longitude": "49.12482",
    "Address": "420124, РТ, г. Казань, ул. Чистопольская, д. 43",
    "Label": "ООО \"Стоматологическая поликлиника №9\" г. Казань",
    "Id": 92
  },
  {
    "Latitude": "55.730441",
    "Longitude": "49.092885",
    "Address": "420005, РТ, г. Казань, ул. Магистральная, д. 83",
    "Label": "ООО \"Стоматологическая поликлиника №9\" г. Казань",
    "Id": 93
  },
  {
    "Latitude": "55.837308",
    "Longitude": "49.100925",
    "Address": "420057, РТ, г. Казань, ул. Короленко, д. 83",
    "Label": "ООО \"Стоматологическая поликлиника №9\" г. Казань",
    "Id": 94
  },
  {
    "Latitude": "55.859888",
    "Longitude": "49.216979",
    "Address": "420071, РТ, г. Казань, ул. Мира, д. 53",
    "Label": "ООО \"Стоматологическая поликлиника №9 \"Дербышки\"",
    "Id": 95
  },
  {
    "Latitude": "55.767874",
    "Longitude": "49.227839",
    "Address": "420140, РТ, г. Казань, ул. Ломжинская, д. 13",
    "Label": "ООО \"Стоматологическая поликлиника №9 Азино\"",
    "Id": 96
  },
  {
    "Latitude": "55.763432",
    "Longitude": "49.147674",
    "Address": "420059, РТ, г. Казань, ул. Даурская, д. 12, каб. 201",
    "Label": "ООО \"МегаДэнтКазань\"",
    "Id": 97
  },
  {
    "Latitude": "55.758681",
    "Longitude": "49.187226",
    "Address": "420101, РТ, г. Казань, ул. Мавлютова, д. 2",
    "Label": "ООО \"БАРСМЕД\"",
    "Id": 98
  },
  {
    "Latitude": "55.788697",
    "Longitude": "49.115703",
    "Address": "420111, РТ, г. Казань, ул. Островского, д. 21\/8",
    "Label": "ООО \"Майя Клиник\"",
    "Id": 99
  },
  {
    "Latitude": "55.858043",
    "Longitude": "49.077857",
    "Address": "420036, РТ, г. Казань, ул. Лечебная, д. 7, каб. 19",
    "Label": "ООО \"Высокие Технологии Медицины Плюс\"",
    "Id": 100
  },
  {
    "Latitude": "55.789892",
    "Longitude": "49.183525",
    "Address": "420098, РТ, г. Казань, пр-кт  Камалеева, д. 12",
    "Label": "ООО \"Зубная Лечебница\"",
    "Id": 101
  },
  {
    "Latitude": "55.7968",
    "Longitude": "49.116628",
    "Address": "420111, РТ, г. Казань, ул. К.Маркса, д. 14",
    "Label": "ООО \"Реацентр Казанский\"",
    "Id": 102
  },
  {
    "Latitude": "55.788272",
    "Longitude": "49.155588",
    "Address": "420097, РТ, г. Казань, ул. Зинина, д. 15",
    "Label": "ООО \"Предприятие \"Лабмед\"",
    "Id": 103
  },
  {
    "Latitude": "55.786602",
    "Longitude": "49.170338",
    "Address": "420097, РТ, г. Казань, ул. А. Кутуя, д. 16",
    "Label": "ООО \"Март-М\"",
    "Id": 104
  },
  {
    "Latitude": "55.827687",
    "Longitude": "49.125773",
    "Address": "420124, РТ, г. Казань, ул. Ямашева, д. 54,корп.1",
    "Label": "ООО \"Март-С\"",
    "Id": 105
  },
  {
    "Latitude": "55.786602",
    "Longitude": "49.170338",
    "Address": "420097, РТ, г. Казань, ул. А. Кутуя, д. 16",
    "Label": "ООО \"Март-С\"",
    "Id": 106
  },
  {
    "Latitude": "55.748376",
    "Longitude": "49.188691",
    "Address": "420101, РТ, г. Казань, ул. Мавлютова, д. 42, офис 1100",
    "Label": "ООО «НУРСТОМ»",
    "Id": 107
  },
  {
    "Latitude": "55.794118",
    "Longitude": "49.125647",
    "Address": "420015, РТ, г. Казань, ул. Пушкина, д. 52",
    "Label": "ООО \"Доктор Шейх\"",
    "Id": 108
  },
  {
    "Latitude": "55.810658",
    "Longitude": "49.181145",
    "Address": "420029, РТ, г. Казань, ул. Сибирский тракт, д. 23",
    "Label": "ООО «Клиника профилактики онкологических заболеваний»",
    "Id": 109
  },
  {
    "Latitude": "55.799315",
    "Longitude": "49.117284",
    "Address": "420111, РТ, г. Казань, ул. З. Космодемьянской, д.1,кв  36",
    "Label": "ООО \"НормаДент\"",
    "Id": 110
  },
  {
    "Latitude": "55.829188",
    "Longitude": "49.123536",
    "Address": "420103, РТ, г. Казань, пр-кт Ямашева, д. 48Б",
    "Label": "ООО \"Клиника семейной медицины\"",
    "Id": 111
  },
  {
    "Latitude": "55.819869",
    "Longitude": "49.106405",
    "Address": "420066, РТ, г.Казань,ул.Чистопольская,9а",
    "Label": "ООО \"Медицина Казани\"",
    "Id": 112
  },
  {
    "Latitude": "55.776092",
    "Longitude": "49.142356",
    "Address": "420049, РТ, г. Казань, ул. Эсперанто, д. 10",
    "Label": "ООО \"Ева Дент\"",
    "Id": 113
  },
  {
    "Latitude": "55.822974",
    "Longitude": "49.086633",
    "Address": "420034, РТ, г. Казань, ул. Декабристов, д. 117",
    "Label": "ООО \"Ева Дент+\"",
    "Id": 114
  },
  {
    "Latitude": "55.821209",
    "Longitude": "49.151258",
    "Address": "420094, РТ, г. Казань, ул. Чистопольская, д. 77\/2",
    "Label": "ООО «Камелия-Мед»",
    "Id": 115
  },
  {
    "Latitude": "55.751173",
    "Longitude": "49.244853",
    "Address": "420141, РТ, г. Казань, ул. К. Гали, д. 27",
    "Label": "ООО \"Камелия-Мед +\"",
    "Id": 116
  },
  {
    "Latitude": "55.763807",
    "Longitude": "49.220608",
    "Address": "420140, РТ, г. Казань, пр-кт Победы, д. 78",
    "Label": "ООО \"Семейная стоматология\" Камелия-Мед\"",
    "Id": 117
  },
  {
    "Latitude": "55.79679",
    "Longitude": "49.097709",
    "Address": "420015, РТ, г. Казань, ул. Ташаяк, д. 2а,  ",
    "Label": "ООО \"Семейная стоматология\" Камелия-Мед\"",
    "Id": 118
  },
  {
    "Latitude": "55.785275",
    "Longitude": "49.118883",
    "Address": "420111, РТ, г. Казань, ул. Пушкина, д. 1\/55",
    "Label": "ООО \"Медицинский центр «Азбука Здоровья»",
    "Id": 119
  },
  {
    "Latitude": "55.677291",
    "Longitude": "49.116772",
    "Address": "420070, РТ, г. Казань, пос. Петровский",
    "Label": "ООО Санаторий \"Нехама\"",
    "Id": 120
  },
  {
    "Latitude": "55.7532",
    "Longitude": "49.230013",
    "Address": "420141,РТ, г. Казань, ул. Ю.Фучика, 99,кв.2",
    "Label": "ООО \"Эстетик Дент\"",
    "Id": 121
  },
  {
    "Latitude": "55.791486",
    "Longitude": "49.164122",
    "Address": "420061, РТ, г. Казань, ул. Абжалилова, д. 19а",
    "Label": "ООО \"АИР МЕД\"",
    "Id": 122
  },
  {
    "Latitude": "55.800651",
    "Longitude": "49.174398",
    "Address": "420029, РТ, г. Казань, ул. Сибирский тракт, д. 78",
    "Label": "ООО \"АЗИ-МЕД\"",
    "Id": 123
  },
  {
    "Latitude": "55.896655",
    "Longitude": "49.135879",
    "Address": "420099, РТ, г. Казань, ул. Чехова, д. 3\/7",
    "Label": "ООО \"Вертеброневрология-1\"",
    "Id": 124
  },
  {
    "Latitude": "55.687096",
    "Longitude": "49.21308",
    "Address": "420000, с. Усады, ул. Счастливая, д. 7",
    "Label": "ООО \"Вертеброневрология-2\"",
    "Id": 125
  },
  {
    "Latitude": "55.789866",
    "Longitude": "49.225198",
    "Address": "420100, РТ, г. Казань, ул. Х.Бигичева, д. 28А",
    "Label": "ООО Сосудистый центр \"Импульс-Ангио\"",
    "Id": 126
  },
  {
    "Latitude": "55.794366",
    "Longitude": "49.116951",
    "Address": "420111, РТ, г. Казань, ул. Дзержинского, д. 16",
    "Label": "ООО \"Управляющая компания \"АГРО\"",
    "Id": 127
  },
  {
    "Latitude": "55.739894",
    "Longitude": "49.19877",
    "Address": "420138, РТ, г. Казань, ул. Дубравная, д. 51",
    "Label": "ООО \"Альбадент\"",
    "Id": 128
  },
  {
    "Latitude": "55.750352",
    "Longitude": "49.249659",
    "Address": "420102, РТ, г. Казань, ул. Акчулпан, д. 2а",
    "Label": "ООО \"Альбадент\"",
    "Id": 129
  },
  {
    "Latitude": "55.798707",
    "Longitude": "49.064588",
    "Address": "420030, РТ, г. Казань, ул. Столярова, д. 7",
    "Label": "ООО \"Стома+\"",
    "Id": 130
  },
  {
    "Latitude": "55.823232",
    "Longitude": "49.060914",
    "Address": "420033, РТ, г. Казань, ул. Батыршина, д. 27",
    "Label": "ООО \"Стома+М\"",
    "Id": 131
  },
  {
    "Latitude": "55.772568",
    "Longitude": "49.237838",
    "Address": "420140, РТ, г. Казань, ул. Минская, д. 37",
    "Label": "ООО \"ЭГО+\"",
    "Id": 132
  },
  {
    "Latitude": "55.829734",
    "Longitude": "49.144098",
    "Address": "420126, РТ, г. Казань, ул. Адоратского, д. 17",
    "Label": "ООО \"МЕДЕЛ\"",
    "Id": 133
  },
  {
    "Latitude": "55.815752",
    "Longitude": "49.182753",
    "Address": "420029, РТ, г. Казань, ул. Сибирский тракт, д. 34",
    "Label": "ООО Многопрофильная Клиника \"Медел\"",
    "Id": 134
  },
  {
    "Latitude": "55.822701",
    "Longitude": "49.154016",
    "Address": "421001, РТ, г. Казань, ул. Чистопольская, д. 79",
    "Label": "ООО \"УниДент\"",
    "Id": 135
  },
  {
    "Latitude": "55.863464",
    "Longitude": "49.102785",
    "Address": "420127, РТ, г. Казань, ул. Академика Павлова, д. 9",
    "Label": "ООО УК \"КАПО-ЖБС\"",
    "Id": 136
  },
  {
    "Latitude": "55.861343",
    "Longitude": "49.076662",
    "Address": "420036, РТ, г. Казань, ул. Челюскина, д. 25А",
    "Label": "ООО \"Престиж-Дент\"",
    "Id": 137
  },
  {
    "Latitude": "55.800023",
    "Longitude": "49.179528",
    "Address": "420061, РТ, г. Казань, ул. Н. Ершова, д. 57, офис 1000",
    "Label": "ООО \"Здоровье Красоты\"",
    "Id": 138
  },
  {
    "Latitude": "55.786971",
    "Longitude": "49.13145",
    "Address": "420012, РТ, г. Казань, ул. Бутлерова, д. 20А",
    "Label": "ООО \"РТС\"",
    "Id": 139
  },
  {
    "Latitude": "55.743446",
    "Longitude": "49.204124",
    "Address": "420102, РТ, г. Казань, ул. Ю. Фучика, д. 55Б",
    "Label": "ООО \"РТС\"",
    "Id": 140
  },
  {
    "Latitude": "55.816187",
    "Longitude": "49.140245",
    "Address": "420018, РТ, г. Казань, ул. С. Хакима, д. 41",
    "Label": "ООО \"Знакомый доктор\"",
    "Id": 141
  },
  {
    "Latitude": "55.746132",
    "Longitude": "49.189867",
    "Address": "420101, РТ, г. Казань, ул. Парина, д. 6",
    "Label": "ООО \"Знакомый доктор\"",
    "Id": 142
  },
  {
    "Latitude": "55.837045",
    "Longitude": "49.088205",
    "Address": "420066, РТ, г. Казань, пр-кт Ибрагимова, д. 20",
    "Label": "ООО \"Стоматология На Ибрагимова\"",
    "Id": 143
  },
  {
    "Latitude": "55.820329",
    "Longitude": "49.101545",
    "Address": "420066, РТ, г. Казань, ул. Чистопольская, д. 5а",
    "Label": "ООО \"МЕДИЦИНСКИЕ ТЕХНОЛОГИИ\"",
    "Id": 144
  },
  {
    "Latitude": "55.780902",
    "Longitude": "49.109325",
    "Address": "420021, РТ, г. Казань, ул. Нариманова, д. 63",
    "Label": "ООО \"Стоматологический центр \"Денталюкс+\"",
    "Id": 145
  },
  {
    "Latitude": "55.787781",
    "Longitude": "49.226923",
    "Address": "420100, РТ, г. Казань, ул. Академика, Глушко, д. 43",
    "Label": "ООО \"М.Ц.\"Разумед\"",
    "Id": 146
  },
  {
    "Latitude": "55.776836",
    "Longitude": "49.224929",
    "Address": "420100, РТ, г. Казань, ул. Закиева, д. 9а",
    "Label": "ООО \"Медсервис-Азино\"",
    "Id": 147
  },
  {
    "Latitude": "55.784562",
    "Longitude": "49.220985",
    "Address": "420100,РТ, г. Казань, пр-кт Победы, д. 158",
    "Label": "ООО \"Стоматологическая поликлиника \"Азино\"",
    "Id": 148
  },
  {
    "Latitude": "55.779727",
    "Longitude": "49.236697",
    "Address": "420100, РТ, г. Казань, ул. Академика Глушко, д. 8",
    "Label": "ООО \"Стоматологическая Клиника \"Азино \"",
    "Id": 149
  },
  {
    "Latitude": "55.790777",
    "Longitude": "49.140855",
    "Address": "420012, РТ, г. Казань, ул. Бутлерова, д. 49",
    "Label": "ГОУ ВПО « Казанский государственный медицинский университет Росздрава»",
    "Id": 150
  },
  {
    "Latitude": "55.755505",
    "Longitude": "49.216467",
    "Address": "420110, РТ, г. Казань, пр-кт Победы, д. 45А",
    "Label": "ООО \"Полярис\"",
    "Id": 151
  },
  {
    "Latitude": "55.781752",
    "Longitude": "49.169278",
    "Address": "420073, РТ, г. Казань, ул. Толбухина, д. 5",
    "Label": "ООО \"Зубная клиника\"",
    "Id": 152
  },
  {
    "Latitude": "55.788282",
    "Longitude": "49.173024",
    "Address": "420073,РТ, г. Казань, ул. Спортивная, д. 3",
    "Label": "ООО \"Бьютиклиник\"",
    "Id": 153
  },
  {
    "Latitude": "55.829102",
    "Longitude": "49.132824",
    "Address": "420103, РТ, г. Казань, пр-кт Ф. Амирхана, д. 31А",
    "Label": "ООО \"Меддек\"",
    "Id": 154
  },
  {
    "Latitude": "55.786455",
    "Longitude": "49.173886",
    "Address": "420073, РТ, г. Казань, ул. А. Кутуя, д. 44а",
    "Label": "ООО \"Клиника Глазных Болезней\"",
    "Id": 155
  },
  {
    "Latitude": "55.818604",
    "Longitude": "49.109774",
    "Address": "420124, РТ, г. Казань, ул. Чистопольская, д. 16\/1",
    "Label": "ООО \"Клиника Глазных Болезней\"",
    "Id": 156
  },
  {
    "Latitude": "55.770633",
    "Longitude": "49.103908",
    "Address": "420108, РТ, г. Казань, ул. М. Гафури, д. 7",
    "Label": "ООО \"РедКомпани\"",
    "Id": 157
  },
  {
    "Latitude": "55.787123",
    "Longitude": "49.158121",
    "Address": "420097, РТ, г. Казань, ул. Достоевского, д. 74А",
    "Label": "ООО \"Казанский Гомеопатический Центр\"",
    "Id": 158
  },
  {
    "Latitude": "55.816591",
    "Longitude": "49.062738",
    "Address": "420032, РТ, г. Казань, ул. Деловая, д. 20",
    "Label": "ООО \"Дантист+\"",
    "Id": 159
  },
  {
    "Latitude": "55.808037",
    "Longitude": "49.20133",
    "Address": "421001, Рт, г. Казань, ул. 2-я Азинская, д. 35",
    "Label": "ООО \"Лайф Клиник +\"",
    "Id": 160
  },
  {
    "Latitude": "55.825239",
    "Longitude": "49.115361",
    "Address": "420124, РТ, г. Казань, ул. Меридианная, д. 15А",
    "Label": "ООО \"Фортуна-Мед\"",
    "Id": 161
  },
  {
    "Latitude": "55.821634",
    "Longitude": "49.132573",
    "Address": "420124, РТ, г. Казань, пр-кт Ф. Амирхана, д. 13",
    "Label": "ООО \"СИТИ СТОМ\"",
    "Id": 162
  },
  {
    "Latitude": "55.793232",
    "Longitude": "49.126626",
    "Address": "420015, РТ, г. Казань, ул. Галактионова, д. 3",
    "Label": "ООО \"Клиника Тибетской медицины \"Наран\"",
    "Id": 163
  },
  {
    "Latitude": "55.78157",
    "Longitude": "49.221012",
    "Address": "420100, РТ, г. Казань, пр-кт Победы, д. 152\/33",
    "Label": "ООО Клиника \"9 месяцев\"",
    "Id": 164
  },
  {
    "Latitude": "55.826256",
    "Longitude": "49.111184",
    "Address": "420124, РТ, г. Казань, пр-кт Ямашева, д. 37",
    "Label": "ООО \"Центр неотложной медицинской помощи\"",
    "Id": 165
  },
  {
    "Latitude": "55.789892",
    "Longitude": "49.183525",
    "Address": "420073, РТ, г. Казань, пр-кт Альберта Камалеева, д. 12",
    "Label": "ООО \"Стоматология XXI век\"",
    "Id": 166
  },
  {
    "Latitude": "55.787862",
    "Longitude": "49.156046",
    "Address": "420097, РТ, г. Казань, ул. Достоевского, д. 73",
    "Label": "ООО \"Стоматологический центр Зодиак\"",
    "Id": 167
  },
  {
    "Latitude": "55.813966",
    "Longitude": "49.086777",
    "Address": "420034, РТ, г. Казань, ул. Вахитова, д. 6",
    "Label": "ООО \"Клиника остеопатии Гайнуллиной\"",
    "Id": 168
  },
  {
    "Latitude": "55.820829",
    "Longitude": "49.087666",
    "Address": "420034, РТ, г. Казань, ул. Лушникова, д. 10",
    "Label": "ООО ЛДЦ \"Казанская клиника\"",
    "Id": 169
  },
  {
    "Latitude": "55.801475",
    "Longitude": "49.139014",
    "Address": "420015, РТ, г. Казань, ул. Подлужная, д. 19",
    "Label": "ООО \"Терра Мед\"",
    "Id": 170
  },
  {
    "Latitude": "55.772568",
    "Longitude": "49.237838",
    "Address": "420140, РТ, г. Казань, ул. Минская, д. 37",
    "Label": "ООО \"Консультативно-Диагностический Центр\"",
    "Id": 171
  },
  {
    "Latitude": "55.823065",
    "Longitude": "49.10548",
    "Address": "420126, РТ, г. Казань, ул. Бондаренко, д. 14",
    "Label": "ООО \"Смайл-клиник\"",
    "Id": 172
  },
  {
    "Latitude": "55.775819",
    "Longitude": "49.135016",
    "Address": "420107, РТ, г. Казань, ул. М. Салимжанова, д. 19",
    "Label": "ОАО \"Артромед\"",
    "Id": 173
  },
  {
    "Latitude": "55.791046",
    "Longitude": "49.117113",
    "Address": "420111, РТ, г. Казань, ул. Профсоюзная, д. 19",
    "Label": "АО \"АВА-Казань\"",
    "Id": 174
  },
  {
    "Latitude": "55.82001",
    "Longitude": "49.149668",
    "Address": "421001, РТ, г. Казань, ул. Чистопольская, д. 75",
    "Label": "ООО «Камил-Дент»",
    "Id": 175
  },
  {
    "Latitude": "55.741414",
    "Longitude": "49.221794",
    "Address": "420139, РТ, г. Казань, ул. Р. Зорге, д. 102",
    "Label": "ООО \"Стоматологическая поликлиника \"Горки-2\"",
    "Id": 176
  },
  {
    "Latitude": "55.786986",
    "Longitude": "49.188556",
    "Address": "420073, РТ, г. Казань, пр-кт Альберта Камалеева, д. 26\/1",
    "Label": "ООО \"Эстетик-Сити Плюс\"",
    "Id": 177
  },
  {
    "Latitude": "55.820273",
    "Longitude": "49.049775",
    "Address": "420033, РТ, г. Казань, ул. Лазарева, д. 3",
    "Label": "ООО \"Стоматология \"На Лазарева\"",
    "Id": 178
  },
  {
    "Latitude": "55.780486",
    "Longitude": "49.109783",
    "Address": "420021, РТ, г. Казань, ул. Нариманова, д. 65",
    "Label": "ООО \"Клиника ЛМС\"",
    "Id": 179
  },
  {
    "Latitude": "55.789482",
    "Longitude": "49.138726",
    "Address": "420012, РТ, г. Казань, ул. Бутлерова, д. 44",
    "Label": "ООО \"Медицинский центр-Казань\"",
    "Id": 180
  },
  {
    "Latitude": "55.804056",
    "Longitude": "49.205067",
    "Address": "420088, РТ, г. Казань, ул. Азинская, 2-я, д. 1Б",
    "Label": "ООО \"Стоматологический центр \"Эликсир\"",
    "Id": 181
  },
  {
    "Latitude": "55.786455",
    "Longitude": "49.173886",
    "Address": "420073, РТ, г. Казань, ул. А. Кутуя, д. 44А",
    "Label": "ООО \"Ваш доктор\"",
    "Id": 182
  },
  {
    "Latitude": "55.819358",
    "Longitude": "49.078324",
    "Address": "420034, РТ, г. Казань, ул. Коммунаров, д. 2",
    "Label": "ООО \"Примамед\"",
    "Id": 183
  },
  {
    "Latitude": "55.751102",
    "Longitude": "49.18781",
    "Address": "420101, РТ, г. Казань, ул. Х. Мавлютова, д. 28А",
    "Label": "ООО \"Дантист-К\"",
    "Id": 184
  },
  {
    "Latitude": "55.79014",
    "Longitude": "49.136633",
    "Address": "420012, РТ, г. Казань, ул. Муштари, д. 12А",
    "Label": "ООО \"Медэксперт\"",
    "Id": 185
  },
  {
    "Latitude": "55.815534",
    "Longitude": "49.13808",
    "Address": "420088, РТ, г. Казань, ул. С. Хакима д. 52",
    "Label": "ООО \"Медэксперт\"",
    "Id": 186
  },
  {
    "Latitude": "55.815534",
    "Longitude": "49.13808",
    "Address": "420088, РТ, г. Казань, ул. С. Хакима, д. 52",
    "Label": "ООО \"Клиника Дружковых\"",
    "Id": 187
  },
  {
    "Latitude": "55.827312",
    "Longitude": "49.064454",
    "Address": "420095, РТ, г. Казань, ул. Серова, д. 19",
    "Label": "ООО \"Тридцать две жемчужины\"",
    "Id": 188
  },
  {
    "Latitude": "55.79062",
    "Longitude": "49.108112",
    "Address": "420111, РТ, г. Казань, ул. Лево-Булачная, д. 30",
    "Label": "ООО \"Мадин-клиника\"",
    "Id": 189
  },
  {
    "Latitude": "55.799887",
    "Longitude": "49.192374",
    "Address": "420061, РТ,  г. Казань, ул. Космонавтов, д. 39",
    "Label": "ООО \"Дин Дентал Клиник\"",
    "Id": 190
  },
  {
    "Latitude": "55.799568",
    "Longitude": "49.120383",
    "Address": "420111, РТ, г. Казань, ул. Тельмана, д. 23",
    "Label": "ООО \"Клиника эстетической медицины и лазерных технологий\" \"Врачебная практика Джаннис\"",
    "Id": 191
  },
  {
    "Latitude": "55.836792",
    "Longitude": "49.135843",
    "Address": "420137, РТ, г. Казань, ул. Чуйкова, д. 43",
    "Label": "ООО \"Яна-Дент\"",
    "Id": 192
  },
  {
    "Latitude": "55.733305",
    "Longitude": "49.184208",
    "Address": "420064, РТ, г. Казань, ул. Оренбургский тракт, д. 138",
    "Label": "АК БАРС МЕДИЦИНА",
    "Id": 193
  },
  {
    "Latitude": "55.790787",
    "Longitude": "49.109935",
    "Address": "420111, РТ, г. Казань, ул. Право-Булачная, д. 33\/1",
    "Label": "ООО \"Булгар-Стом\"",
    "Id": 194
  },
  {
    "Latitude": "55.822377",
    "Longitude": "49.14682",
    "Address": "421001, РТ, г. Казань, ул. Адоратского, д. 3",
    "Label": "ООО \"Гарант К\"",
    "Id": 195
  },
  {
    "Latitude": "55.819853",
    "Longitude": "49.113151",
    "Address": "420124, РТ, г. Казань, ул. Чистопольская, д. 15",
    "Label": "ООО \"Стомус-К\"",
    "Id": 196
  },
  {
    "Latitude": "55.76959",
    "Longitude": "49.145275",
    "Address": "420059,РТ, г. Казань, ул. Павлюхина, д. 87",
    "Label": "ООО \"Эксперт\"",
    "Id": 197
  },
  {
    "Latitude": "55.820582",
    "Longitude": "49.119206",
    "Address": "420124, РТ, г. Казань, ул. Мусина, д. 9",
    "Label": "ООО «Апломб»",
    "Id": 198
  },
  {
    "Latitude": "55.791633",
    "Longitude": "49.182124",
    "Address": "420073, РТ, г. Казань, пр-кт Альберта Камалеева, д. 2",
    "Label": "ООО «Дент Аль»",
    "Id": 199
  },
  {
    "Latitude": "55.816713",
    "Longitude": "49.136418",
    "Address": "421001, РТ, г. Казань, ул. С.  Хакима, д. 33",
    "Label": "ООО \"Клиника восстановительной медицины\"",
    "Id": 200
  },
  {
    "Latitude": "55.789294",
    "Longitude": "49.140451",
    "Address": "420012, РТ, г. Казань, ул. Бутлерова, д. 54",
    "Label": "ООО \"Поликлиника профилактической медицины \"Весна\"",
    "Id": 201
  },
  {
    "Latitude": "55.816126",
    "Longitude": "49.084935",
    "Address": "420124, РТ, г. Казань, ул. Горсоветская, д. 33",
    "Label": "ООО \"Стоматология доктора Галеевой\"",
    "Id": 202
  },
  {
    "Latitude": "55.770649",
    "Longitude": "49.142266",
    "Address": "420059, РТ, г. Казань, ул. Павлюхина, д. 102А",
    "Label": "ООО \"ТИАмед клиник\"",
    "Id": 203
  },
  {
    "Latitude": "55.784627",
    "Longitude": "49.151617",
    "Address": "420097, РТ, г. Казань, ул. Вишневского, д. 49Б",
    "Label": "ООО \"Формула здоровья\"",
    "Id": 204
  },
  {
    "Latitude": "55.783686",
    "Longitude": "49.125863",
    "Address": "420107, РТ, г. Казань, ул. Островского, д. 67",
    "Label": "ООО \"Алан Клиник\"",
    "Id": 205
  },
  {
    "Latitude": "55.784607",
    "Longitude": "49.124003",
    "Address": "420107, РТ, г. Казань, ул. Островского, д. 57а",
    "Label": "ООО «Центр неврологии и ортопедии «Алан Клиник»",
    "Id": 206
  },
  {
    "Latitude": "55.795722",
    "Longitude": "49.117095",
    "Address": "420111, РТ, г. Казань, ул. Дзержинского, д. 13",
    "Label": "ООО \"Эксклюзив-Дент\"",
    "Id": 207
  },
  {
    "Latitude": "55.818806",
    "Longitude": "49.114813",
    "Address": "420124, РТ, г. Казань, ул. Чистопольская, д. 26",
    "Label": "ООО \"Эксклюзив-Дент К\"",
    "Id": 208
  },
  {
    "Latitude": "55.796324",
    "Longitude": "49.193497",
    "Address": "420061, РТ, г. Казань, ул. Космонавтов, д. 42",
    "Label": "ООО \"Эксклюзив Дент Плюс\"",
    "Id": 209
  },
  {
    "Latitude": "55.790023",
    "Longitude": "49.112082",
    "Address": "420111, РТ, г. Казань, ул. Островского, д. 6",
    "Label": "ООО \"Стоматология-Центр\"",
    "Id": 210
  },
  {
    "Latitude": "55.814037",
    "Longitude": "49.067957",
    "Address": "420124, РТ, г. Казань, ул. Краснококшайская, д. 83",
    "Label": "ООО \"Стоматология на Краснококшайской\"",
    "Id": 211
  },
  {
    "Latitude": "55.838056",
    "Longitude": "49.125054",
    "Address": "420136, РТ, г. Казань, ул. Чуйкова, д. 29А",
    "Label": "ООО \"Стоматология на Чуйкова\"",
    "Id": 212
  },
  {
    "Latitude": "55.747348",
    "Longitude": "49.18958",
    "Address": "420101, РТ, г. Казань, ул. Х. Мавлютова, д. 48",
    "Label": "ООО «Стоматология на Мавлютова»",
    "Id": 213
  },
  {
    "Latitude": "55.833198",
    "Longitude": "49.083336",
    "Address": "420080, РТ, г. Казань, ул. Восстания, д. 41",
    "Label": "ООО \"Стоматология на Восстания\"",
    "Id": 214
  },
  {
    "Latitude": "55.747348",
    "Longitude": "49.18958",
    "Address": "420101, РТ, ул. Х. Мавлютова, д. 48",
    "Label": "ООО \"Детская стоматология на Мавлютова\"",
    "Id": 215
  },
  {
    "Latitude": "55.796324",
    "Longitude": "49.193497",
    "Address": "420061, РТ, г. Казань, ул. Космонавтов, д. 42",
    "Label": "ООО \"Центр челюстно-лицевой хирургии и парадонтологии\"",
    "Id": 216
  },
  {
    "Latitude": "55.793399",
    "Longitude": "49.110636",
    "Address": "420111, РТ, г. Казань, ул. Чернышевского, д. 10\/6",
    "Label": "ООО \"Клиника пластической и реконструктивной хирургии\"",
    "Id": 217
  },
  {
    "Latitude": "55.793399",
    "Longitude": "49.110636",
    "Address": "420111, РТ, г. Казань, ул. Чернышевского, д. 10\/6",
    "Label": "ОАО \"Городская стоматология\" ф-л№1",
    "Id": 218
  },
  {
    "Latitude": "55.792802",
    "Longitude": "49.174282",
    "Address": "420081, РТ, г. Казань, ул. Патриса, Лумумбы, д. 28А",
    "Label": "ООО \"Глазная хирургия Расческов\"",
    "Id": 219
  },
  {
    "Latitude": "55.791633",
    "Longitude": "49.132151",
    "Address": "420012, РТ, г. Казань, ул. Маяковского, д. 30",
    "Label": "ООО \"Клиника персональной медицины\"",
    "Id": 220
  },
  {
    "Latitude": "55.787017",
    "Longitude": "49.153495",
    "Address": "420097,РТ, г. Казань, ул. Достоевского, д. 52",
    "Label": "ООО \"НИИМК \"Ваше здоровье\"",
    "Id": 221
  },
  {
    "Latitude": "55.792625",
    "Longitude": "49.163044",
    "Address": "420061, РТ, г. Казань, ул. Ершова, д.28",
    "Label": "ООО \"Астро-МедСервис\"",
    "Id": 222
  },
  {
    "Latitude": "55.738607",
    "Longitude": "49.202112",
    "Address": "420138, РТ, г. Казань,  Дубравная, д. 43А",
    "Label": "ООО \"ДентаМед\"",
    "Id": 223
  },
  {
    "Latitude": "55.763432",
    "Longitude": "49.147674",
    "Address": "420059, РТ, г. Казань, ул. Даурская, д. 12",
    "Label": "ООО \"Клиника оториноларингологии\"",
    "Id": 224
  },
  {
    "Latitude": "55.776629",
    "Longitude": "49.117355",
    "Address": "420021, РТ, г. Казань, ул. Сафьян, д. 8",
    "Label": "ООО \"Ютаза\"",
    "Id": 225
  },
  {
    "Latitude": "55.776092",
    "Longitude": "49.142356",
    "Address": "420049, РТ, г. Казань, ул. Эсперанто, д. 10",
    "Label": "ООО \"Медицина Красоты\"",
    "Id": 226
  },
  {
    "Latitude": "55.803909",
    "Longitude": "49.184576",
    "Address": "420029, РТ, г. Казань, ул. Сибирский тракт, д. 3",
    "Label": "ООО \"Хэппи Клиник\"",
    "Id": 227
  },
  {
    "Latitude": "55.794067",
    "Longitude": "49.126958",
    "Address": "420015, РТ, г. Казань, ул. Максима Горького, д. 6А",
    "Label": "ООО \"Отель-Клиник\"",
    "Id": 228
  },
  {
    "Latitude": "55.794431",
    "Longitude": "49.126878",
    "Address": "420015, РТ, г. Казань, ул. Максима Горького, д. 3",
    "Label": "ООО \"Центр восстановительной медицины и курортологии\"",
    "Id": 229
  },
  {
    "Latitude": "55.785124",
    "Longitude": "49.121865",
    "Address": "420107, РТ, г. Казань, ул. Островского, д. 38",
    "Label": "ООО \"ЛДЦ \"Сердце\"",
    "Id": 230
  },
  {
    "Latitude": "55.790099",
    "Longitude": "49.136175",
    "Address": "420012, РТ, г. Казань, ул. Муштари, д. 12",
    "Label": "ООО \"Вкус плюс\"",
    "Id": 231
  },
  {
    "Latitude": "55.741825",
    "Longitude": "49.210187",
    "Address": "420138, РТ, г. Казань, ул. Юлиуса Фучика, д. 14Б",
    "Label": "ООО \"Витар\"",
    "Id": 232
  },
  {
    "Latitude": "55.826276",
    "Longitude": "49.117832",
    "Address": "420124, респ. Татарстан, г. Казань, пр-кт Ямашева, д. 43",
    "Label": "ООО \"ВИЛЬДАН\"",
    "Id": 233
  },
  {
    "Latitude": "55.828076",
    "Longitude": "49.05707",
    "Address": "420033, РТ, г. Казань, ул. Кулахметова, д. 19",
    "Label": "ООО \"Улыбка\"",
    "Id": 234
  },
  {
    "Latitude": "55.787523",
    "Longitude": "49.130228",
    "Address": "420012, РТ, г. Казань, ул. Бутлерова, д. 16",
    "Label": "ООО \"Центр новых технологий РСП\"",
    "Id": 235
  },
  {
    "Latitude": "55.791177",
    "Longitude": "49.102542",
    "Address": "420111, РТ, г. Казань, ул. Рустема Яхина, д. 4",
    "Label": "ООО \"Медикал Он Групп-Казань\"",
    "Id": 236
  },
  {
    "Latitude": "55.836383",
    "Longitude": "49.106001",
    "Address": "420094, РТ, г. Казань, ул. Чуйкова, д. 5",
    "Label": "ООО \"Практик Дент\"",
    "Id": 237
  },
  {
    "Latitude": "55.776578",
    "Longitude": "49.133453",
    "Address": "420107, РТ, г. Казань, ул. Марселя Салимжанова, д. 15\/8",
    "Label": "ООО \"Таланид\"",
    "Id": 238
  },
  {
    "Latitude": "55.838106",
    "Longitude": "49.15813",
    "Address": "420137, РТ, г. Казань, ул. Гаврилова, д. 40\/2",
    "Label": "ООО «Стоматологический центр «Имплантстом»",
    "Id": 239
  },
  {
    "Latitude": "55.791445",
    "Longitude": "49.136624",
    "Address": "420012, РТ, г. Казань, ул. Щапова, д. 26",
    "Label": "ООО \"Фирма Денс\"",
    "Id": 240
  },
  {
    "Latitude": "55.818685",
    "Longitude": "49.104105",
    "Address": "420066, РТ, г. Казань, ул. Чистопольская, д. 10\/8",
    "Label": "ООО \"Денс+\"",
    "Id": 241
  },
  {
    "Latitude": "55.784496",
    "Longitude": "49.126554",
    "Address": "420107, РТ, г. Казань, ул. Петербургская, д. 26",
    "Label": "ООО \"Стоматологическая поликлиника Рокада-Мед\"",
    "Id": 242
  },
  {
    "Latitude": "55.76995",
    "Longitude": "49.14081",
    "Address": "420059, РТ, г. Казань, ул. Шаляпина, д. 41А",
    "Label": "ООО \"Стоматологическая поликлиника№5\"",
    "Id": 243
  },
  {
    "Latitude": "55.791496",
    "Longitude": "49.153225",
    "Address": "420097, РТ, г. Казань, ул. Вишневского, д. 3",
    "Label": "ООО \"Стоматологический центр \"Элит\"",
    "Id": 244
  },
  {
    "Latitude": "55.808963",
    "Longitude": "49.199228",
    "Address": "420088, РТ, г. Казань, ул. Губкина, д. 52, А",
    "Label": "ООО \"Лечебно профилактическое объединение \"РифЭль\"",
    "Id": 245
  },
  {
    "Latitude": "55.76684",
    "Longitude": "49.186418",
    "Address": "420087, РТ, г. Казань, ул. Даурская, д. 44в",
    "Label": "ООО \"Нью-Дент\"",
    "Id": 246
  },
  {
    "Latitude": "55.772806",
    "Longitude": "49.139095",
    "Address": "420059, РТ, г. Казань, ул. Эсперанто, д. 35",
    "Label": "ООО \"Дантист\"",
    "Id": 247
  },
  {
    "Latitude": "55.750504",
    "Longitude": "49.204133",
    "Address": "420138, РТ, г. Казань, ул. Гарифьянова, д. 25",
    "Label": "ООО \"СФ Фактория\"",
    "Id": 248
  },
  {
    "Latitude": "55.838283",
    "Longitude": "49.146802",
    "Address": "420132, РТ, г. Казань, ул. Адоратского, д. 29",
    "Label": "ООО \"СФ Фактория\"",
    "Id": 249
  },
  {
    "Latitude": "55.806919",
    "Longitude": "49.179986",
    "Address": "420029, РТ, г. Казань, ул. Дружбы, д. 1",
    "Label": "ООО \"Дентиатр\"",
    "Id": 250
  },
  {
    "Latitude": "55.82001",
    "Longitude": "49.149668",
    "Address": "421001, РТ, г. Казань, ул. Чистопольская, д. 75",
    "Label": "ЗАО «СЦ «ДентаДам»",
    "Id": 251
  },
  {
    "Latitude": "55.746324",
    "Longitude": "49.230013",
    "Address": "420139, РТ, г. Казань, ул. Сафиуллина, д. 50",
    "Label": "ООО \"Икрут Плюс\"",
    "Id": 252
  },
  {
    "Latitude": "55.791916",
    "Longitude": "49.156818",
    "Address": "420061, РТ, г. Казань, ул. Николая Ершова, д. 16",
    "Label": "ООО \"НПО Политех\"",
    "Id": 253
  },
  {
    "Latitude": "55.862873",
    "Longitude": "49.091727",
    "Address": "420127, РТ, г. Казань, ул. Лукина, д. 10",
    "Label": "ООО \"КДЦ Авиастроительного района\"",
    "Id": 254
  },
  {
    "Latitude": "55.862873",
    "Longitude": "49.091727",
    "Address": "420127, РТ, г. Казань, ул. Лукина, д. 10",
    "Label": "ООО \"КДЦ на Лукина\"",
    "Id": 255
  },
  {
    "Latitude": "55.799294",
    "Longitude": "49.191862",
    "Address": "420061, РТ, г. Казань, ул. Космонавтов, д. 41",
    "Label": "ООО \"Гарпия\"",
    "Id": 256
  },
  {
    "Latitude": "55.827737",
    "Longitude": "49.097269",
    "Address": "420044, РТ, г. Казань, пр-кт Ямашева, д. 30",
    "Label": "ООО \"АРИ_Он\"",
    "Id": 257
  },
  {
    "Latitude": "55.824814",
    "Longitude": "49.078045",
    "Address": "420034, РТ, г. Казань, ул. Энергетиков, д. 9",
    "Label": "ООО \"Авиценна-эндокринология\"",
    "Id": 258
  },
  {
    "Latitude": "55.769418",
    "Longitude": "49.132968",
    "Address": "420059, РТ, г. Казань, ул. Назарбаева, д. 47",
    "Label": "ООО \"Медицинское объединение \"Спасение\"",
    "Id": 259
  },
  {
    "Latitude": "55.785645",
    "Longitude": "49.184154",
    "Address": "420081, РТ, г. Казань, ул. Кариева, д. 3",
    "Label": "ООО \"Центр Дерматология\"",
    "Id": 260
  },
  {
    "Latitude": "55.791435",
    "Longitude": "49.149928",
    "Address": "420043, РТ, г. Казань, ул. Чехова, д. 3А",
    "Label": "ГАУЗ \"Станция скорой медицинской помощи\"",
    "Id": 261
  },
  {
    "Latitude": "55.833754",
    "Longitude": "49.079384",
    "Address": "420080, РТ, г. Казань, ул. Восстания, д. 42",
    "Label": "ООО \"ЭНЖЕ-Стоматология\"",
    "Id": 262
  },
  {
    "Latitude": "55.813966",
    "Longitude": "49.086777",
    "Address": "420021, РТ, г. Казань, ул. Вахитова, д. 6",
    "Label": "ООО \"Центр современной медицины\"",
    "Id": 263
  },
  {
    "Latitude": "55.851995",
    "Longitude": "49.083606",
    "Address": "420036, РТ, г. Казань, ул. Копылова, д. 3\/1",
    "Label": "ООО \"Стоматолог\"",
    "Id": 264
  },
  {
    "Latitude": "55.78157",
    "Longitude": "49.221012",
    "Address": "420100, РТ, г. Казань, пр-кт Победы, д. 152",
    "Label": "ООО \"Ювента\"",
    "Id": 265
  },
  {
    "Latitude": "55.822225",
    "Longitude": "49.151042",
    "Address": "421001, РТ, г. Казань, ул. Чистопольская, д. 81",
    "Label": "ООО \"Нейромед\"",
    "Id": 266
  },
  {
    "Latitude": "55.78729",
    "Longitude": "49.1152",
    "Address": "420111, РТ, г. Казань, ул. Право-Булачная, д. 47",
    "Label": "ООО \"Здравствуйте\"",
    "Id": 267
  },
  {
    "Latitude": "55.836393",
    "Longitude": "49.112972",
    "Address": "420094, РТ, г. Казань, ул. Чуйкова, д. 13",
    "Label": "ООО \"Профидент\"",
    "Id": 268
  },
  {
    "Latitude": "55.79349",
    "Longitude": "49.118317",
    "Address": "420107, РТ, г. Казань, ул. Кави Наджи. д. 22а",
    "Label": "ООО \"Элит-Денталь+\"",
    "Id": 269
  },
  {
    "Latitude": "55.867521",
    "Longitude": "49.002057",
    "Address": "420051, РТ, г. Казань, ул. Беломорская. д. 101",
    "Label": "ПАО \"Казаньоргсинтез\"",
    "Id": 270
  },
  {
    "Latitude": "55.770649",
    "Longitude": "49.142266",
    "Address": "420039, РТ, г. Казань, ул. Павлюхина. д. 102а",
    "Label": "ООО «Доктор Дентал»",
    "Id": 271
  },
  {
    "Latitude": "55.783539",
    "Longitude": "49.148446",
    "Address": "420043, РТ, г. Казань, ул. Калинина, д. 69",
    "Label": "ООО «Центр здоровья «Дар»",
    "Id": 272
  },
  {
    "Latitude": "55.74674",
    "Longitude": "49.206064",
    "Address": "420138, РТ, г. Казань, пр-кт Победы, д. 46а",
    "Label": "ООО «Стоматология Флагман»",
    "Id": 273
  },
  {
    "Latitude": "55.748584",
    "Longitude": "49.224812",
    "Address": "420139, РТ, г. Казань, ул. Ю. Фучика, д. 50",
    "Label": "ООО «Улыбка 32»",
    "Id": 274
  },
  {
    "Latitude": "55.796127",
    "Longitude": "49.106414",
    "Address": "420140, РТ, г. Казань, ул. Икмекле, д. 13",
    "Label": "ООО «МЦ «НУРМЕД»",
    "Id": 275
  },
  {
    "Latitude": "55.814436",
    "Longitude": "49.077165",
    "Address": "420032, РТ, г. Казань, ул. Ягодинская, д. 25",
    "Label": "ООО «Стоматология для всех»",
    "Id": 276
  },
  {
    "Latitude": "55.791253",
    "Longitude": "49.137568",
    "Address": "420012, республика Татарстан, г. Казань, ул. Толстого, д. 5\/28, пом. ",
    "Label": "ООО «Смотри Клиника»",
    "Id": 277
  },
  {
    "Latitude": "55.833991",
    "Longitude": "49.081037",
    "Address": "420039, РТ, г. Казань, ул. Декабристов, д. 160\/40",
    "Label": "ООО «Стоматолог и Я»",
    "Id": 278
  },
  {
    "Latitude": "55.783686",
    "Longitude": "49.125863",
    "Address": "420107, РТ, г. Казань, ул. Островского, д. 67",
    "Label": "ООО «Доктор Цито»",
    "Id": 279
  },
  {
    "Latitude": "55.783256",
    "Longitude": "49.126734",
    "Address": "420107, РТ, г. Казань, ул. Островского, д. 69\/3",
    "Label": "ООО «Качество жизни»",
    "Id": 280
  },
  {
    "Latitude": "55.766957",
    "Longitude": "49.235017",
    "Address": "420140, РТ, г. Казань, ул. Ноксинский спуск, д. 8",
    "Label": "ООО «Клиника доктора Купермана»",
    "Id": 281
  },
  {
    "Latitude": "55.808462",
    "Longitude": "49.183561",
    "Address": "420029, РТ, г. Казань, Сибирский тракт, д. 12а",
    "Label": "ООО «Центр неврологии и ортопедии «Основа здоровья»",
    "Id": 282
  },
  {
    "Latitude": "55.823823",
    "Longitude": "49.122835",
    "Address": "420124, РТ, г. Казань, ул. Четаева, д. 33",
    "Label": "ООО «Зубная Фея»",
    "Id": 283
  },
  {
    "Latitude": "55.825163",
    "Longitude": "49.037594",
    "Address": "420004, РТ, г. Казань, Горьковское шоссе, д. 15",
    "Label": "ООО «Дент-А-Мед»",
    "Id": 284
  },
  {
    "Latitude": "55.782603",
    "Longitude": "49.130076",
    "Address": "420107, РТ, г. Казань, ул. Петербургская, д. 44",
    "Label": "ООО «Центр эстетической стоматологии»",
    "Id": 285
  },
  {
    "Latitude": "55.76599",
    "Longitude": "49.18746",
    "Address": "420140, РТ, г. Казань, ул. Даурская, д. 44г",
    "Label": "ООО «Фэмили-Дент»",
    "Id": 286
  },
  {
    "Latitude": "55.776462",
    "Longitude": "49.217886",
    "Address": "420098, РТ, г. Казань, пр-кт Победы, д. 139",
    "Label": "ООО «ПобедаСтом»",
    "Id": 287
  },
  {
    "Latitude": "55.787938",
    "Longitude": "49.149048",
    "Address": "420043, РТ, г. Казань, ул. Достоевского, д. 40",
    "Label": "ООО «Центр современной ортопедии»",
    "Id": 288
  },
  {
    "Latitude": "55.82711",
    "Longitude": "49.151833",
    "Address": "420133, РТ, г. Казань, п-кт Ямашева, д. 94а",
    "Label": "ООО «Ами Дент»",
    "Id": 289
  },
  {
    "Latitude": "55.782557",
    "Longitude": "49.146272",
    "Address": "420043, РТ, г. Казань, ул. Калинина, д. 52",
    "Label": "ООО «Альбина»",
    "Id": 290
  },
  {
    "Latitude": "55.826281",
    "Longitude": "49.096191",
    "Address": "420066, РТ, г. Казань, пр-кт Ямашева, д. 11",
    "Label": "ООО «Центр лечения позвоночника и суставов «Казань Доктор Ост»",
    "Id": 291
  },
  {
    "Latitude": "55.773064",
    "Longitude": "49.146757",
    "Address": "420049, РТ, г. Казань, ул. Качалова, д. 84",
    "Label": "ООО «Мануал»",
    "Id": 292
  },
  {
    "Latitude": "55.841084",
    "Longitude": "49.201069",
    "Address": "420000, РТ, г. Казань, Сибирский тракт, д. 78",
    "Label": "ООО \"Стоматологический центр \"Биомед\"",
    "Id": 293
  },
  {
    "Latitude": "55.829997",
    "Longitude": "49.067625",
    "Address": "420000, РТ, г. Казань, ул. Ш. Усманова, д. 25а",
    "Label": "ООО \"СТОМАТОЛОГ и Я\"",
    "Id": 294
  },
  {
    "Latitude": "55.824769",
    "Longitude": "49.13525",
    "Address": "420126, РТ, г. Казань, пр-кт Ямашева, д. 69",
    "Label": "ООО \"САЛАМАТ\"",
    "Id": 295
  },
  {
    "Latitude": "55.822701",
    "Longitude": "49.154016",
    "Address": "421001, РТ, г. Казань, ул. Чистопольская, д. 79",
    "Label": "ООО \"Биодент\"",
    "Id": 296
  },
  {
    "Latitude": "55.821805",
    "Longitude": "49.149704",
    "Address": "420124, РТ, г. Казань, ул. Четаева, д. 4",
    "Label": "ООО \"Миллениум\"",
    "Id": 297
  },
  {
    "Latitude": "55.762014",
    "Longitude": "49.232448",
    "Address": "420140, РТ, г. Казань, ул. Фучика, д. 88",
    "Label": "ООО \"Стандарт\"",
    "Id": 298
  },
  {
    "Latitude": "55.822321",
    "Longitude": "49.081567",
    "Address": "420034, РТ, г. Казань, ул. 2-я Юго-Западная, д. 35",
    "Label": "ООО \"Прайммед\"",
    "Id": 299
  },
  {
    "Latitude": "55.787523",
    "Longitude": "49.130228",
    "Address": "420012, РТ, г. Казань, ул. Бутлерова, д. 16",
    "Label": "ГАУЗ « Республиканская стоматологическая поликлиника МЗ РТ»",
    "Id": 300
  },
  {
    "Latitude": "55.76092",
    "Longitude": "49.145787",
    "Address": "420000, РТ, г. Казань, ул. Даурская, д. 12а",
    "Label": "ООО \"Бене вобис\"",
    "Id": 301
  },
  {
    "Latitude": "55.776462",
    "Longitude": "49.217886",
    "Address": "420000, РТ, г. Казань, пр-т Победы, д. 139",
    "Label": "ООО \"Стоматология на Проспекте»",
    "Id": 302
  },
  {
    "Latitude": "55.823176",
    "Longitude": "49.073715",
    "Address": "420000, РТ, г. Казань, ул. Серова, д. 46а",
    "Label": "ООО \"ВЕНЕРА\"",
    "Id": 303
  },
  {
    "Latitude": "55.836413",
    "Longitude": "49.080192",
    "Address": "420000, РТ, г. Казань, ул. Декабристов, д. 191\/93",
    "Label": "ООО \"ТВОЙ СТОМАТОЛОГ\"",
    "Id": 304
  },
  {
    "Latitude": "55.833208",
    "Longitude": "49.091062",
    "Address": "420000, РТ, г. Казань, пр-кт Ибрагимова, д. 39",
    "Label": "ООО \"РИДЕНТЕ\"",
    "Id": 305
  },
  {
    "Latitude": "55.778892",
    "Longitude": "49.136723",
    "Address": "420000, РТ, г. Казань, ул. Петербургская, д. 64",
    "Label": "ООО «Международный центр цифровой стоматологии «ИДЕНТ»",
    "Id": 306
  },
  {
    "Latitude": "55.818806",
    "Longitude": "49.114813",
    "Address": "420124, РТ, г. Казань, ул. Чистопольская, д. 26\/5",
    "Label": "ООО \"ЭСТЕТИК СИТИ К\"",
    "Id": 307
  },
  {
    "Latitude": "55.81038",
    "Longitude": "49.271884",
    "Address": "420000, РТ, г. Казань, ул. Интернациональная, д. 43",
    "Label": "ООО \"СИТИДОК-ЭКСПЕРТ КАЗАНЬ\"",
    "Id": 308
  },
  {
    "Latitude": "55.7848",
    "Longitude": "49.148491",
    "Address": "420043, РТ, г. Казань, ул. Х. Атласи, д. 26",
    "Label": "ООО \"Наше дело\"",
    "Id": 309
  },
  {
    "Latitude": "55.783013",
    "Longitude": "49.19462",
    "Address": "420000, РТ, г. Казань, пр-кт А. Камалеева, д. 34б",
    "Label": "ООО \"ЛИВДЕНТ\"",
    "Id": 310
  },
  {
    "Latitude": "55.784076",
    "Longitude": "49.183912",
    "Address": "420000, РТ, г. Казань, ул. А. Кутуя, д. 82а",
    "Label": "ООО \"Корд-Клиника\"",
    "Id": 311
  },
  {
    "Latitude": "55.762014",
    "Longitude": "49.232448",
    "Address": "420000, РТ, г. Казань, ул. Ю. Фучика, д. 88",
    "Label": "ООО «Стандарт»",
    "Id": 312
  },
  {
    "Latitude": "55.7848",
    "Longitude": "49.148491",
    "Address": "420000, РТ, г. Казань, ул. Х. Атласи, д. 26",
    "Label": "ООО «Ультрамарин»",
    "Id": 313
  },
  {
    "Latitude": "55.828091",
    "Longitude": "49.124829",
    "Address": "420000, РТ, г. Казань, пр-кт Ямашева, д. 52",
    "Label": "АО «Детская стоматологическая поликлиника №9»",
    "Id": 314
  },
  {
    "Latitude": "55.815023",
    "Longitude": "49.181603",
    "Address": "420029, РТ, г. Казань, ул. Арбузова, д. 4",
    "Label": "ООО «Конкорд»",
    "Id": 315
  },
  {
    "Latitude": "55.782471",
    "Longitude": "49.230426",
    "Address": "420000, РТ, г. Казань, ул. Вагапова, д. 4",
    "Label": "ООО «Генетик Мед»",
    "Id": 316
  },
  {
    "Latitude": "55.816217",
    "Longitude": "49.14143",
    "Address": "420000, РТ, г. Казань, ул. Нигматуллина, д. 1\/47",
    "Label": "ООО «ЭГО-ЭСТЕТИК»",
    "Id": 317
  },
  {
    "Latitude": "55.822933",
    "Longitude": "49.075269",
    "Address": "420000, РТ, г. Казань, ул. Серова, д. 48",
    "Label": "ООО \"ДентАРИЗ\"",
    "Id": 318
  },
  {
    "Latitude": "55.779216",
    "Longitude": "49.113807",
    "Address": "420021, РТ, г. Казань, ул. Тукая, д. 58",
    "Label": "ООО \"Люкс\"",
    "Id": 319
  },
  {
    "Latitude": "55.835083",
    "Longitude": "49.119916",
    "Address": "420000, РТ, г. Казань, ул. Мусина, д 10",
    "Label": "ООО \"ВИТА\"",
    "Id": 320
  },
  {
    "Latitude": "55.833531",
    "Longitude": "49.135061",
    "Address": "420126, РТ, г. Казань, пр-кт  Амирхана,    д. 14А",
    "Label": "ООО \"Смайл\"",
    "Id": 321
  },
  {
    "Latitude": "55.738074",
    "Longitude": "49.20972",
    "Address": "420000, РТ, г. Казань, ул. Терегулова, д. 2",
    "Label": "ООО \"МРТ Экспресс\"",
    "Id": 322
  },
  {
    "Latitude": "55.778735",
    "Longitude": "49.116565",
    "Address": "420000, РТ, г. Казань, ул. Ф. Карима, д. 14\/67",
    "Label": "ГАУЗ \"Городская поликлиника№7\" г.Казани",
    "Id": 323
  },
  {
    "Latitude": "55.731115",
    "Longitude": "49.175342",
    "Address": "420000, РТ, г. Казань, ул. Б. Урманче, д. 7",
    "Label": "ООО \"КЛИНИКА ДОБРОГО СТОМАТОЛОГА\"",
    "Id": 324
  },
  {
    "Latitude": "55.825522",
    "Longitude": "49.084926",
    "Address": "420000,РТ, г. Казань, ул. Декабристов, д. 127",
    "Label": "ООО \"Алгадент-Стом\"",
    "Id": 325
  },
  {
    "Latitude": "55.788844",
    "Longitude": "49.123437",
    "Address": "420000, РТ, г. Казань, ул. Пушкина, д. 17",
    "Label": "ООО \"Центр доктора Бубновского в Казани\"",
    "Id": 326
  },
  {
    "Latitude": "55.796952",
    "Longitude": "49.120625",
    "Address": "420000, РТ, г. Казань, ул. Карла Маркса, д. 23\/6",
    "Label": "ООО \"АЙСАЙТ\"",
    "Id": 327
  },
  {
    "Latitude": "55.796127",
    "Longitude": "49.106414",
    "Address": "420000, РТ, г. Казань, ул. Ферма 2, д. 98б",
    "Label": "ООО \"Радент-Казань\"",
    "Id": 328
  },
  {
    "Latitude": "55.768583",
    "Longitude": "49.152417",
    "Address": "420000, РТ, г. Казань, ул. Спартаковская, д. 88Б",
    "Label": "ООО \"Стоматология \"Дель Кам\"",
    "Id": 329
  },
  {
    "Latitude": "55.83292",
    "Longitude": "49.070032",
    "Address": "420000, РТ, г. Казань, ул. Восстания, д. 65",
    "Label": "ООО \"Стоматология Гибадуллины\"",
    "Id": 330
  },
  {
    "Latitude": "55.856821",
    "Longitude": "49.085717",
    "Address": "420000,РТ, г. Казань, ул. Копылова, д. 12",
    "Label": "ООО \"МегаДэнтПлюс\"",
    "Id": 331
  },
  {
    "Latitude": "55.832303",
    "Longitude": "49.073904",
    "Address": "420000, РТ, г Казань, ул. Восход, д 16",
    "Label": "ООО \"СМАРТ КЛИНИК\"",
    "Id": 332
  },
  {
    "Latitude": "55.81083",
    "Longitude": "49.096568",
    "Address": "420000, РТ, г Казань, ул. Комсомольская, д 1",
    "Label": "ООО \"ДОБРОДЕНТ\"",
    "Id": 333
  },
  {
    "Latitude": "55.791688",
    "Longitude": "49.164257",
    "Address": "420000, РТ, г. Казань, ул. Абжалилова, д. 19",
    "Label": "ООО \"Дентал Сити\"",
    "Id": 334
  },
  {
    "Latitude": "55.790939",
    "Longitude": "49.134935",
    "Address": "420000, РТ, г. Казань, ул. Муштари, д. 19",
    "Label": "ООО \"Данке-Стом\"",
    "Id": 335
  },
  {
    "Latitude": "55.728084",
    "Longitude": "49.173455",
    "Address": "420000, РТ, г. Казань, ул. Г. Ахунова, д. 20",
    "Label": "ООО \"ЭСТЕТИК СТОМ+\"",
    "Id": 336
  },
  {
    "Latitude": "55.770558",
    "Longitude": "49.220895",
    "Address": "420000, РТ, г. Казань, пр-кт Победы, д.100а",
    "Label": "ООО \"Стоматолог \"Dental House\"",
    "Id": 337
  },
  {
    "Latitude": "55.786541",
    "Longitude": "49.133085",
    "Address": "420000, РТ, г. Казань, пер. Катановский, д. 4",
    "Label": "ООО \"Импульс-Реа\"",
    "Id": 338
  },
  {
    "Latitude": "55.831251",
    "Longitude": "49.150674",
    "Address": "420000, РТ, г. Казань, ул. Академика Лаврентьева, д. 12",
    "Label": "ООО \"АЛОЭ КЛИНИКА\"",
    "Id": 339
  },
  {
    "Latitude": "55.821583",
    "Longitude": "49.079581",
    "Address": "420000, РТ, г. Казань, ул. 2-ая Юго-Западная, д. 39",
    "Label": "ООО \"АЛЬФАДЕНТ\"",
    "Id": 340
  },
  {
    "Latitude": "55.865687",
    "Longitude": "49.086525",
    "Address": "420000, РТ, г. Казань, ул. Симонова, д. 15",
    "Label": "ООО \"Семейная стоматология\"",
    "Id": 341
  },
  {
    "Latitude": "55.788368",
    "Longitude": "49.13172",
    "Address": "респ. Татарстан, г. Казань, ул. Бутлерова, д. 29",
    "Label": "ООО Стоматология \"Порываев и К\"",
    "Id": 342
  },
  {
    "Latitude": "55.789932",
    "Longitude": "49.142176",
    "Address": "420000, РТ, г. Казань, ул. Курашова, д. 20",
    "Label": "ООО \"Клиника инновационных медицинских технологий \"Ангио плюс\"",
    "Id": 343
  },
  {
    "Latitude": "55.78854",
    "Longitude": "49.225602",
    "Address": "420000, РТ, г. Казань, ул. Хайдара Бигичева, д. 24\/45",
    "Label": "ООО \"Дента плюс\"",
    "Id": 344
  },
  {
    "Latitude": "55.84078",
    "Longitude": "49.202633",
    "Address": "420000, РТ, г. Казань, ул. Карьерная, д. 1",
    "Label": "ООО \"Скорая Помощь+\"",
    "Id": 345
  },
  {
    "Latitude": "55.771353",
    "Longitude": "49.227462",
    "Address": "420000, РТ, г. Казань, ул. Минская, д. 26а",
    "Label": "ООО \"Медицинский центр на Минской\"",
    "Id": 346
  },
  {
    "Latitude": "55.758681",
    "Longitude": "49.187226",
    "Address": "420101, РТ, г. Казань, ул. Х. Мавлютова, д. 2",
    "Label": "ООО \"МДЛ Барс Мед\"",
    "Id": 347
  },
  {
    "Latitude": "55.731642",
    "Longitude": "49.17306",
    "Address": "РТ, г. Казань, ул. Баки Урманче, д. 8",
    "Label": "ООО \"Белая Стоматология\"",
    "Id": 348
  },
  {
    "Latitude": "55.778735",
    "Longitude": "49.116565",
    "Address": "РТ, г. Казань, ул. Ф. Карима, д. 14\/67",
    "Label": "ГАУЗ \"Городская поликлиника№7\" г. Казани",
    "Id": 349
  },
  {
    "Latitude": "55.780927",
    "Longitude": "49.125557",
    "Address": "РТ, г Казань, ул. Марселя Салимжанова, д 2в",
    "Label": "ООО Миллидент",
    "Id": 350
  },
  {
    "Latitude": "55.848897",
    "Longitude": "48.518449",
    "Address": "422540,РТ, г. Зеленодольск, ул. Чкалова, д. 2",
    "Label": "ООО \"Мир здоровья\"",
    "Id": 351
  },
  {
    "Latitude": "55.846007",
    "Longitude": "48.506501",
    "Address": "422540, РТ, г. Зеленодольск, ул. Ленина, д. 35",
    "Label": "ООО \"Мир здоровья\"",
    "Id": 352
  },
  {
    "Latitude": "55.851535",
    "Longitude": "48.51729",
    "Address": "РТ, г. Зеленодольск, ул. Гоголя, д. 49А",
    "Label": "ООО \"МЦ \" Айболит-Зеленодольск\"",
    "Id": 353
  },
  {
    "Latitude": "55.850813",
    "Longitude": "48.503564",
    "Address": "422550, РТ, г. Зеленодольск, ул. Карла Маркса, д. 22",
    "Label": "ООО \"Доктор Дент\"",
    "Id": 354
  },
  {
    "Latitude": "55.852991",
    "Longitude": "48.493511",
    "Address": "РТ, г. Зеленодольск, ул. Гоголя, д. 1А",
    "Label": "ГУЗ \"Зеленодольская ЦРБ\"",
    "Id": 355
  },
  {
    "Latitude": "55.857407",
    "Longitude": "48.563616",
    "Address": "РТ, г. Зеленодольск, ул. Комарова, д. 23",
    "Label": "ООО «Матур»",
    "Id": 356
  },
  {
    "Latitude": "56.626124",
    "Longitude": "47.886214",
    "Address": "424006, респ. Марий Эл, г. Йошкар-Ола, пр-кт Гагарина, д. 17",
    "Label": "ООО \"Луч Здоровья\"",
    "Id": 357
  },
  {
    "Latitude": "56.637842",
    "Longitude": "47.868311",
    "Address": "424003, респ. Марий Эл, г. Йошкар-Ола, ул. Машиностроителей, д. 61",
    "Label": "ООО \"Эстетик\"",
    "Id": 358
  },
  {
    "Latitude": "56.637842",
    "Longitude": "47.868311",
    "Address": "респ. Марий Эл, г. Йошкар-Ола, ул. Машиностроителей, д. 61",
    "Label": "Общество с ограниченной ответственностью \"Клинмед\"",
    "Id": 359
  },
  {
    "Latitude": "56.650765",
    "Longitude": "47.880842",
    "Address": "424037, респ. Марий, Эл, г. Йошкар-Ола, ул. Водопроводная, д. 83Б",
    "Label": "ГБУ РМЭ \"\"Медико-санитарная часть № 1 г.Йошкар-Ола\"",
    "Id": 360
  },
  {
    "Latitude": "56.641906",
    "Longitude": "47.88572",
    "Address": "респ. Марий Эл, г. Йошкар-Ола, ул. Красноармейская, д. 61, корп. а",
    "Label": "Общество с ограниченной ответственностью \"Медцентр \"Единица Плюс\"",
    "Id": 361
  },
  {
    "Latitude": "56.644985",
    "Longitude": "47.860388",
    "Address": "респ. Марий Эл, г. Йошкар-Ола, ул. Красноармейская, д. 107",
    "Label": "ООО \"СТОМА-ДВОР\"",
    "Id": 362
  },
  {
    "Latitude": "56.632803",
    "Longitude": "47.915302",
    "Address": "респ. Марий Эл, г. Йошкар-Ола, бул. Чавайна, д. 20, корп. Б",
    "Label": "ООО \"Жемчужина\"",
    "Id": 363
  },
  {
    "Latitude": "56.629788",
    "Longitude": "47.892458",
    "Address": "респ. Марий Эл, г. Йошкар-Ола, пр-кт Ленинский, д. 19",
    "Label": "ООО \"Дента Плюс\"",
    "Id": 364
  },
  {
    "Latitude": "56.639615",
    "Longitude": "47.873099",
    "Address": "424003, респ. Марий Эл, г. Йошкар-Ола, бул. Победы, д. 35",
    "Label": "ООО \"АЛЛ Дента\"",
    "Id": 365
  },
  {
    "Latitude": "56.640501",
    "Longitude": "47.901917",
    "Address": "респ. Марий Эл, г. Йошкар-Ола, ул. Советская, д. 97",
    "Label": "ООО \"Астрадент\"",
    "Id": 366
  },
  {
    "Latitude": "56.634783",
    "Longitude": "47.894084",
    "Address": "424000, респ. Марий Эл, г. Йошкар-Ола, бул. Чавайна, д. 45, корп. А",
    "Label": "ООО \"Медиа - Стом\"",
    "Id": 367
  },
  {
    "Latitude": "56.636744",
    "Longitude": "47.879818",
    "Address": "респ. Марий Эл, г. Йошкар-Ола, ул. Якова Эшпая, д. 156, корп. Б",
    "Label": "ООО \"Креатив\"",
    "Id": 368
  },
  {
    "Latitude": "56.642589",
    "Longitude": "47.889376",
    "Address": "респ. МАрий Эл, г. Йошкар-Ола, ул. Первомайская, д. 100",
    "Label": "МЦ \"Канон\"",
    "Id": 369
  },
  {
    "Latitude": "56.62492",
    "Longitude": "47.86426",
    "Address": "424006, респ. Марий, Эл, г. Йошкар-Ола, ул. Лермонтова, д. 31",
    "Label": "ИП Гурьева Ольга Александровна",
    "Id": 370
  },
  {
    "Latitude": "56.63509",
    "Longitude": "47.883969",
    "Address": "респ. Марий Эл, г. Йошкар-Ола, ул. Пушкина, д. 38",
    "Label": "ООО \"Дента-Люкс\"",
    "Id": 371
  },
  {
    "Latitude": "56.634184",
    "Longitude": "47.930681",
    "Address": "респ. Марий Эл, г. Йошкар-Ола, ул. Кирова, д. 13",
    "Label": "ООО \"Медицинский центр Айболит-2\"",
    "Id": 372
  },
  {
    "Latitude": "56.63408",
    "Longitude": "47.856094",
    "Address": "респ. Марий Эл, г. Йошкар-Ола, ул. машиностроителей, д. 32",
    "Label": "ГБУ РМЭ \"Медико-санитарная часть №1 г. Йошкар-Ола\"",
    "Id": 373
  },
  {
    "Latitude": "56.63408",
    "Longitude": "47.856094",
    "Address": "424003, респ. Марий, Эл, г. Йошкар-Ола, ул. Машиностроителей, д. 32",
    "Label": "ГБУ РМЭ \"Медико-санитарная часть №1 г. Йошкар-Ола\"",
    "Id": 374
  },
  {
    "Latitude": "56.643995",
    "Longitude": "47.903076",
    "Address": "респ. Марий Эл, г. Йошкар-Ола, ул. Советская, д. 56",
    "Label": "ГБУ РМЭ \"Поликлиника № 2 г.Йошкар-Олы\"",
    "Id": 375
  },
  {
    "Latitude": "56.652641",
    "Longitude": "47.863981",
    "Address": "424037, респ. Марий Эл, г. Йошкар-Ола, ул. Дружбы, д. 95",
    "Label": "ГБУ РМЭ \"Республиканский центр по профилактике и борьбе со СПИД и инфекционными заболеваниями\"",
    "Id": 376
  },
  {
    "Latitude": "56.635719",
    "Longitude": "47.841945",
    "Address": "респ Марий Эл, г Йошкар-Ола, ул Прохорова, д 18",
    "Label": "ГБУ РМЭ \"Городская поликлиника № 4 г.Йошкар-Олы\"",
    "Id": 377
  },
  {
    "Latitude": "56.638179",
    "Longitude": "47.878534",
    "Address": "424002, респ. Марий Эл, г. Йошкар-Ола, бул. Победы, д. 19",
    "Label": "ГБУ РМЭ \"Перинатальный центр\"",
    "Id": 378
  },
  {
    "Latitude": "56.638179",
    "Longitude": "47.878534",
    "Address": "респ. Марий Эл, г. Йошкар-Ола, ул. Победы, д. 19",
    "Label": "ГБУ РМЭ \"Перинатальный центр\"",
    "Id": 379
  },
  {
    "Latitude": "56.433207",
    "Longitude": "48.987881",
    "Address": "425120, респ. Марий Эл, г. Морки, ул. Механизаторов, д. 14",
    "Label": "ООО Поликлиника \"Любава\"",
    "Id": 380
  },
  {
    "Latitude": "56.646202",
    "Longitude": "47.897677",
    "Address": "424037, респ. Марий Эл, г. Йошкар-Ола, ул. Пролетарская, д. 14, корп. А2",
    "Label": "ООО \"Клиника №1\"",
    "Id": 381
  },
  {
    "Latitude": "56.648454",
    "Longitude": "47.885056",
    "Address": "424037, респ. Марий Эл, г. Йошкар-Ола, ул. Пролетарская, д. 60",
    "Label": "ГБУ \"Республиканская клиническая больница\" РМЭ",
    "Id": 382
  },
  {
    "Latitude": "56.649924",
    "Longitude": "47.884436",
    "Address": "424037, респ. Марий Эл, г. Йошкар-Ола, ул. Осипенко, д. 33",
    "Label": "ГБУ \"Республиканская клиническая больница\" РМЭ",
    "Id": 383
  },
  {
    "Latitude": "56.649924",
    "Longitude": "47.884436",
    "Address": "респ. Марий Эл, г. Йошкар-Ола, ул. Осипенко, д. 33",
    "Label": "ГБУ \"Республиканская клиническая больница\" РМЭ",
    "Id": 384
  },
  {
    "Latitude": "56.642174",
    "Longitude": "47.842655",
    "Address": "респ. Марий Эл, г. Йошкар-Ола, ул. Кырли, д. 15",
    "Label": "МЦ на Кырли",
    "Id": 385
  },
  {
    "Latitude": "56.6469",
    "Longitude": "47.88714",
    "Address": "респ. Марий Эл, г. Йошкар-Ола, ул. Пролетарская, д. 46",
    "Label": "ООО \"Медицинский центр Айболит\"",
    "Id": 386
  },
  {
    "Latitude": "56.650117",
    "Longitude": "47.882603",
    "Address": "респ. Марий Эл, г. Йошкар-Ола, ул. Осипенко, д. 24",
    "Label": "ГБУ РМЭ  \"Респуб. клинич. госпиталь ветеранов войн\"",
    "Id": 387
  },
  {
    "Latitude": "56.632174",
    "Longitude": "47.925435",
    "Address": "424038, респ. Марий Эл, г. Йошкар-Ола, ул. Петрова, д. 14а",
    "Label": "ООО \"Медицинский центр СитиМед\"",
    "Id": 388
  },
  {
    "Latitude": "56.61978",
    "Longitude": "47.885711",
    "Address": "респ. Марий Эл, г. Йошкар-Ола, ул. Карла Марка, д. 140",
    "Label": "ООО \"Медицинский центр СитиМед\"",
    "Id": 389
  },
  {
    "Latitude": "56.63857",
    "Longitude": "47.952016",
    "Address": "респ. Марий Эл, г. Йошкар-Ола, ул. К. Либкнехта, д. 55",
    "Label": "ГБУ РМЭ \"Йошкар-Олинская городская больница\"",
    "Id": 390
  },
  {
    "Latitude": "55.030055",
    "Longitude": "82.941854",
    "Address": "обл. Новосибирская, г. Новосибирск, ул. Тополевая, д. 26",
    "Label": "ООО \"Клиника доктора Лантуха\"",
    "Id": 391
  },
  {
    "Latitude": "55.091989",
    "Longitude": "82.954557",
    "Address": "обл. Новосибирская, г. Новосибирск, ул. Учительская, д. 66",
    "Label": "ООО Логистический центр \"Госпитализация\"  ",
    "Id": 392
  },
  {
    "Latitude": "55.041354",
    "Longitude": "82.960521",
    "Address": "обл. Новосибирская, г. Новосибирск, ул. Фрунзе, д. 71\/1",
    "Label": "ООО \"ДВА-А\"",
    "Id": 393
  },
  {
    "Latitude": "54.984868",
    "Longitude": "82.876232",
    "Address": "обл. Новосибирская, г. Новосибирская, ул. Титова, д. 18, офис 1",
    "Label": "ООО \"Центр МРТ Верум\"",
    "Id": 394
  },
  {
    "Latitude": "55.018882",
    "Longitude": "82.946274",
    "Address": " обл. Новосибирская, г. Новосибирск, ул. Кирова, д. 27\/3 ",
    "Label": "ООО \"АНИМА\"",
    "Id": 395
  },
  {
    "Latitude": "55.049926",
    "Longitude": "82.912578",
    "Address": " обл. Новосибирская, г. Новосибирск, ул. Красный проспект д. 79\/1 ",
    "Label": "ООО \"Клиника Эксперт Новосибирск\"",
    "Id": 396
  },
  {
    "Latitude": "55.032413",
    "Longitude": "82.908653",
    "Address": "630004, обл. Новосибирская, г. Новосибирск, ул. Вокзальная магистраль, д. 10, офис 155",
    "Label": "ООО \"КДЛ НОВОСИБИРСК-ТЕСТ\"",
    "Id": 397
  },
  {
    "Latitude": "55.041885",
    "Longitude": "82.933662",
    "Address": "630005, обл. Новосибирская, г. Новосибирск, ул. Крылова, д. 49 ",
    "Label": "ООО Лечебно-диагностический медицинский центр \"ЭКСИМА\"  (UMG)",
    "Id": 398
  },
  {
    "Latitude": "54.993272",
    "Longitude": "82.898717",
    "Address": "630032, обл. Новосибирская, г. Новосибирск, мкр. Горский, д. 61",
    "Label": "ООО \"КДЛ НОВОСИБИРСК-ТЕСТ\"",
    "Id": 399
  },
  {
    "Latitude": "54.980415",
    "Longitude": "82.900658",
    "Address": "630048, обл. Новосибирская, г. Новосибирск, ул. Ватутина, д. 28",
    "Label": "ООО \"КДЛ НОВОСИБИРСК-ТЕСТ\"",
    "Id": 400
  },
  {
    "Latitude": "55.05892",
    "Longitude": "82.914456",
    "Address": "630049, обл. Новосибирская, г. Новосибирск, пр-кт Красный, д. 186\/1",
    "Label": "ООО \"КДЛ НОВОСИБИРСК-ТЕСТ\"",
    "Id": 401
  },
  {
    "Latitude": "54.869352",
    "Longitude": "83.084938",
    "Address": "630055, обл. Новосибирская, г. Новосибирск, ул. Российская, д. 21",
    "Label": "ООО \"КДЛ НОВОСИБИРСК-ТЕСТ\"",
    "Id": 402
  },
  {
    "Latitude": "54.994517",
    "Longitude": "82.90788",
    "Address": "630073, обл. Новосибирская, г. Новосибирск, мкр. Горский, д. 6 ",
    "Label": "ООО Клиника эстетической медицины \"Золотое сечение\"",
    "Id": 403
  },
  {
    "Latitude": "54.999402",
    "Longitude": "82.959866",
    "Address": "630083, обл. Новосибирская, г. Новосибирск, ул. Большевистская, д. 131",
    "Label": "ООО \"СТАТУС\" (МРТ Лидер)",
    "Id": 404
  },
  {
    "Latitude": "55.036896",
    "Longitude": "82.919244",
    "Address": "630091, обл. Новосибирская, г. Новосибирск, пр-кт Красный, д. 54 ",
    "Label": "ООО \"Интегральная медицина\" (Аперто диагностик)",
    "Id": 405
  },
  {
    "Latitude": "55.039383",
    "Longitude": "82.918669",
    "Address": "630091, обл. Новосибирская, г. Новосибирск, пр-кт Красный, д. 62",
    "Label": "ООО \"КДЛ НОВОСИБИРСК-ТЕСТ\"",
    "Id": 406
  },
  {
    "Latitude": "55.032371",
    "Longitude": "82.92688",
    "Address": "630099, обл. Новосибирская, г. Новосибирск, ул. Орджоникидзе, д. 37\/1 ",
    "Label": "ООО \"Бионт\"",
    "Id": 407
  },
  {
    "Latitude": "55.011996",
    "Longitude": "82.941351",
    "Address": "630102, обл. Новосибирская, г. Новосибирск, ул. Восход, д. 18",
    "Label": "ООО \"КДЛ НОВОСИБИРСК-ТЕСТ\"",
    "Id": 408
  },
  {
    "Latitude": "55.012553",
    "Longitude": "82.942115",
    "Address": "630102, обл. Новосибирская, г. Новосибирск, ул. Восход, д. 20, офис 601",
    "Label": "ООО \"XXI ВЕК\"",
    "Id": 409
  },
  {
    "Latitude": "55.018056",
    "Longitude": "82.93924",
    "Address": "630102, обл. Новосибирская, г. Новосибирск, ул. Кирова, д. 46 ",
    "Label": "ООО \"Астра-Мед\"",
    "Id": 410
  },
  {
    "Latitude": "55.010674",
    "Longitude": "82.942735",
    "Address": "630102, обл. Новосибирская, г. Новосибирск, ул. Якушева, д. 41 ",
    "Label": "ООО \"Клиника Эксперт Новосибирск\"",
    "Id": 411
  },
  {
    "Latitude": "54.987353",
    "Longitude": "82.868363",
    "Address": "630108, обл. Новосибирская, г. Новосибирск, ул. Пархоменко, д. 7",
    "Label": "ФБУН \"Новосибирский НИИ гигиены\"",
    "Id": 412
  },
  {
    "Latitude": "55.109533",
    "Longitude": "82.965678",
    "Address": "630129, обл. Новосибирская, г. Новосибирск, ул. Красных Зорь, д. 1\/2",
    "Label": "ООО \"КДЛ НОВОСИБИРСК-ТЕСТ\"",
    "Id": 413
  },
  {
    "Latitude": "55.045754",
    "Longitude": "82.911707",
    "Address": "630132, обл. Новосибирская, г. Новосибирск, ул. Советская, д. 95",
    "Label": "ООО \"Сердечно-сосудистый центр\"",
    "Id": 414
  },
  {
    "Latitude": "55.042586",
    "Longitude": "82.937201",
    "Address": "г. Новосибирск, ул. Крылова, д. 63",
    "Label": "ООО Центр зрения \"Доктор Линз\"",
    "Id": 415
  },
  {
    "Latitude": "55.030204",
    "Longitude": "82.92043",
    "Address": "г. Новосибирск, ул. Н.Островского, д. 120, офис 3-4",
    "Label": "ООО \"Доктор Ост\"",
    "Id": 416
  },
  {
    "Latitude": "55.048312",
    "Longitude": "82.919199",
    "Address": "обл Новосибирская, г Новосибирск, ул Мичурина, д 43",
    "Label": "ООО\"Династия\"",
    "Id": 417
  },
  {
    "Latitude": "55.023062",
    "Longitude": "82.957117",
    "Address": "обл. Новосибирская, г Новосибирск, ул. Бориса Богаткова, д. 109",
    "Label": "ООО \"Лечебно-диагностический центр Международного института биологических систем имени С.М. Березина\" (ЛДЦ МИБС-Новосибирск)",
    "Id": 418
  },
  {
    "Latitude": "55.011701",
    "Longitude": "82.924742",
    "Address": "обл. Новосибирская, г Новосибирск, ул. Обская, д. 2",
    "Label": "ООО \"Клиника дискотерапии\"",
    "Id": 419
  },
  {
    "Latitude": "55.021405",
    "Longitude": "82.93262",
    "Address": "обл. Новосибирская, г Новосибирск, ул. Сибревкома, д. 9Б",
    "Label": "ООО Международный центр имплантологии \"Ай-Дент\"",
    "Id": 420
  },
  {
    "Latitude": "54.869352",
    "Longitude": "83.084938",
    "Address": "обл. Новосибирская, г Новосибирск, ул. Российская, д. 21",
    "Label": "ООО \"Медичел\"",
    "Id": 421
  },
  {
    "Latitude": "55.063385",
    "Longitude": "82.912524",
    "Address": "обл. Новосибирская, г. Новосибирск, пр-кт Красный, д. 200",
    "Label": "ООО \"Андромед-клиника\" (ЕвроМед клиника)",
    "Id": 422
  },
  {
    "Latitude": "55.066649",
    "Longitude": "82.911572",
    "Address": "обл. Новосибирская, г. Новосибирск, пр-кт Красный, д. 218\/2, офис -",
    "Label": "ООО \"Инвитро - Сибирь\"",
    "Id": 423
  },
  {
    "Latitude": "54.986625",
    "Longitude": "82.891279",
    "Address": "обл. Новосибирская, г. Новосибирск, ул. Ватутина, д. 17\/1",
    "Label": "ООО \"МРТ Альянс Новосибирск\"",
    "Id": 424
  },
  {
    "Latitude": "54.985819",
    "Longitude": "82.887884",
    "Address": "обл. Новосибирская, г. Новосибирск, ул. Ватутина, д. 20\/1",
    "Label": "ООО \"Медичел\"",
    "Id": 425
  },
  {
    "Latitude": "55.019284",
    "Longitude": "82.950469",
    "Address": "обл. Новосибирская, г. Новосибирск, ул. Восход, д. 46",
    "Label": "ООО Медицинский центр \"Своя надежда\"",
    "Id": 426
  },
  {
    "Latitude": "55.053964",
    "Longitude": "82.90921",
    "Address": "обл. Новосибирская, г. Новосибирск, ул. Галущака, д. 17, офис 12",
    "Label": "ООО \"БИОТОН+\" (салон Антистресс)",
    "Id": 427
  },
  {
    "Latitude": "55.055315",
    "Longitude": "82.904601",
    "Address": "обл. Новосибирская, г. Новосибирск, ул. Дуси Ковальчук, д. 250, офис 12\/1",
    "Label": "ООО \"Авантис\"",
    "Id": 428
  },
  {
    "Latitude": "55.010245",
    "Longitude": "82.940372",
    "Address": "обл. Новосибирская, г. Новосибирск, ул. Зыряновская, д. 59",
    "Label": "ООО \"МРТ Альянс Новосибирск\"",
    "Id": 429
  },
  {
    "Latitude": "55.018928",
    "Longitude": "82.924328",
    "Address": "обл. Новосибирская, г. Новосибирск, ул. Каинская, д. 3",
    "Label": "ООО \"МРТ Гранд\"",
    "Id": 430
  },
  {
    "Latitude": "54.990798",
    "Longitude": "82.866917",
    "Address": "обл. Новосибирская, г. Новосибирск, ул. Котовского, д. 31",
    "Label": "ООО Вита-Дент",
    "Id": 431
  },
  {
    "Latitude": "55.026597",
    "Longitude": "82.920744",
    "Address": "обл. Новосибирская, г. Новосибирск, ул. Красный проспект, д. 17",
    "Label": "ООО \"\"ЦДБ-НСК\"",
    "Id": 432
  },
  {
    "Latitude": "55.049926",
    "Longitude": "82.912578",
    "Address": "обл. Новосибирская, г. Новосибирск, ул. Красный проспект, д. 79\/1",
    "Label": "ООО \"МРТ-Эксперт Новосибирск\"",
    "Id": 433
  },
  {
    "Latitude": "55.050205",
    "Longitude": "82.912435",
    "Address": "обл. Новосибирская, г. Новосибирск, ул. Красный проспект, д. 79\/2",
    "Label": "ООО МСЧ \"Клиницист-Клиника Претор\"",
    "Id": 434
  },
  {
    "Latitude": "55.031659",
    "Longitude": "82.931093",
    "Address": "обл. Новосибирская, г. Новосибирск, ул. Орджоникидзе, д. 30",
    "Label": "ООО Консультативно-диагностический ревматологический центр \"Здоровые суставы\"",
    "Id": 435
  },
  {
    "Latitude": "55.032624",
    "Longitude": "82.93571",
    "Address": "обл. Новосибирская, г. Новосибирск, ул. Орджоникидзе, д. 47",
    "Label": "ООО \"САПФИР\" (ТайРай)",
    "Id": 436
  },
  {
    "Latitude": "54.940381",
    "Longitude": "82.896561",
    "Address": "обл. Новосибирская, г. Новосибирск, ул. Сибиряков-Гвардейцев, д. 60",
    "Label": "ГБУЗ НСО \"Городская клиническая поликлиника №22\"",
    "Id": 437
  },
  {
    "Latitude": "55.01804",
    "Longitude": "82.956075",
    "Address": "обл. Новосибирская, г. Новосибирск, ул. Тургенева, д. 155",
    "Label": "ГБУЗ Городская клиническая больница скорой медицинской помощи №2 (ГКБСМП №2)",
    "Id": 438
  },
  {
    "Latitude": "54.869559",
    "Longitude": "83.103551",
    "Address": "обл. Новосибирская, г. Новосибирск, ул. Арбузова, д. 6",
    "Label": "Фонд \"Медсанчасть 168\"",
    "Id": 439
  },
  {
    "Latitude": "55.048884",
    "Longitude": "82.884695",
    "Address": "обл. Новосибирская, г. Новосибирск, ул. Д.Ковальчук, д. 7\/1",
    "Label": "ООО \"ЕвроМедКлиника плюс\"",
    "Id": 440
  },
  {
    "Latitude": "54.986759",
    "Longitude": "82.901062",
    "Address": "обл Новосибирская, г Новосибирск, пр-кт Карла Маркса, д 29",
    "Label": "ООО \"Улыбка\"",
    "Id": 441
  },
  {
    "Latitude": "55.003533",
    "Longitude": "83.02131",
    "Address": "обл. Новосибирская, г. Новосибирск, ул. Выборная, д. 125\/1",
    "Label": "ООО  \"ДЕНТА\"",
    "Id": 442
  },
  {
    "Latitude": "54.991372",
    "Longitude": "82.909407",
    "Address": "обл. Новосибирская, г. Новосибирск, ул. Карла Маркса, д. 51",
    "Label": "ООО  \"ДЕНТА\"",
    "Id": 443
  },
  {
    "Latitude": "55.080097",
    "Longitude": "82.955338",
    "Address": "630110, обл. Новосибирская, г. Новосибирск, ул. Александра Невского, д. 29 ",
    "Label": "ООО  \"ДЕНТА\"",
    "Id": 444
  },
  {
    "Latitude": "55.100639",
    "Longitude": "82.97308",
    "Address": "630027, обл. Новосибирская, г. Новосибирск, ул. Дунаевского, д. 3 ",
    "Label": "ООО  \"ДЕНТА\"",
    "Id": 445
  },
  {
    "Latitude": "55.017715",
    "Longitude": "82.944783",
    "Address": " обл. Новосибирская, г. Новосибирск, ул. Кирова, д. 27 ",
    "Label": "ООО  \"ДЕНТА\"",
    "Id": 446
  },
  {
    "Latitude": "55.029007",
    "Longitude": "82.929269",
    "Address": "630099, обл. Новосибирская, г. Новосибирск, ул. Каменская, д. 26 ",
    "Label": "ООО\"Дент Арт\"",
    "Id": 447
  },
  {
    "Latitude": "55.055439",
    "Longitude": "82.919181",
    "Address": "630105, обл. Новосибирская, г. Новосибирск, ул. Деповская, д. 36 ",
    "Label": "ООО Клиника НовоДент",
    "Id": 448
  },
  {
    "Latitude": "55.046966",
    "Longitude": "82.91672",
    "Address": "обл. Новосибирская, г. Новосибирск, ул. Красный проспект, д. 82, офис 22",
    "Label": "ООО \"Сибдент-Сервис\"",
    "Id": 449
  },
  {
    "Latitude": "55.041049",
    "Longitude": "82.918795",
    "Address": "обл. Новосибирская, г. Новосибирск, ул. Крылова, д. 7, корп. 1",
    "Label": "ООО \"Дентал-Косметик\"",
    "Id": 450
  },
  {
    "Latitude": "55.031365",
    "Longitude": "82.914195",
    "Address": "обл. Новосибирская, г. Новосибирск, ул. Вокзальная магистраль, д. 16, офис 208",
    "Label": "ООО \"Дентлайн\"",
    "Id": 451
  },
  {
    "Latitude": "55.029575",
    "Longitude": "82.908365",
    "Address": "обл. Новосибирская, г. Новосибирск, пр-кт Димитрова, д. 4\/1",
    "Label": "ООО \"Дентал-Косметик\"",
    "Id": 452
  },
  {
    "Latitude": "55.163672",
    "Longitude": "82.974176",
    "Address": "обл. Новосибирская, г Новосибирск, ул. Селенгинская, д. 4а",
    "Label": "ООО \"ИН Дент\"",
    "Id": 453
  },
  {
    "Latitude": "54.991971",
    "Longitude": "82.899544",
    "Address": "обл Новосибирская, г Новосибирск, ул Выставочная, д 38\/1",
    "Label": "ООО \"Пломба\" ",
    "Id": 454
  },
  {
    "Latitude": "55.074747",
    "Longitude": "82.954916",
    "Address": "обл Новосибирская, г. Новосибирск, 1-й Краснодонский переулок, 3",
    "Label": "ООО \"Пломба\"",
    "Id": 455
  },
  {
    "Latitude": "55.03571",
    "Longitude": "82.922145",
    "Address": " обл. Новосибирская, г. Новосибирск, ул. Романова, д. 39 ",
    "Label": "ООО \"Пломба\"",
    "Id": 456
  },
  {
    "Latitude": "54.98478",
    "Longitude": "82.871885",
    "Address": "обл. Новосибирская, г. Новосибирск, ул. Станиславского, д. 11",
    "Label": "ООО \"Дейз-Дент\"",
    "Id": 457
  },
  {
    "Latitude": "54.984006",
    "Longitude": "82.909443",
    "Address": "630024, обл. Новосибирская, г. Новосибирск, ул. Новогодняя, д. 28\/1 ",
    "Label": "ООО Стоматологический центр \"Ника-Н\"",
    "Id": 458
  },
  {
    "Latitude": "54.984006",
    "Longitude": "82.909443",
    "Address": "обл. Новосибирская, г. Новосибирск, ул. Новогодняя, д. 28\/1",
    "Label": "ООО Стоматологический центр \"Ника-Н\" ",
    "Id": 459
  },
  {
    "Latitude": "55.100639",
    "Longitude": "82.97308",
    "Address": "630027, обл. Новосибирская, г. Новосибирск, ул. Дунаевского, д. 3 ",
    "Label": "ООО Компания \"Дента\"",
    "Id": 460
  },
  {
    "Latitude": "55.041839",
    "Longitude": "82.930069",
    "Address": "обл. Новосибирская, г. Новосибирск, ул. Семьи Шамшиных, д. 64, офис 508",
    "Label": "ООО СК \"Виноградов и Шкроба\"",
    "Id": 461
  },
  {
    "Latitude": "54.451758",
    "Longitude": "83.371851",
    "Address": "633216, обл. Новосибирская, рп. Линево, пр-кт Мира, д. 51 ",
    "Label": "ООО Медицинский центр \"Жемчужина\"",
    "Id": 462
  },
  {
    "Latitude": "55.053629",
    "Longitude": "82.927445",
    "Address": "обл. Новосибирская, г Новосибирск, ул. Линейная, д. 53\/1",
    "Label": "ООО Клиника доктора Садыковой",
    "Id": 463
  },
  {
    "Latitude": "55.041121",
    "Longitude": "82.94578",
    "Address": "630004, обл. Новосибирская, г. Новосибирск, ул. Державина, д. 77\/1",
    "Label": "ООО \"Аванта-дент\"",
    "Id": 464
  },
  {
    "Latitude": "55.024471",
    "Longitude": "82.908913",
    "Address": "630099, обл. Новосибирская, г. Новосибирск, ул. Чаплыгина, д. 4",
    "Label": "ООО \"Карат-Сервис-С\"",
    "Id": 465
  },
  {
    "Latitude": "55.025302",
    "Longitude": "82.922316",
    "Address": "630099, обл. Новосибирская, г. Новосибирск, пр-кт Красный, д. 28 , оф. 407",
    "Label": "ООО \"Стоматологическая студия \"Диадема\"",
    "Id": 466
  },
  {
    "Latitude": "55.039084",
    "Longitude": "82.921624",
    "Address": "630091, обл. Новосибирская, г. Новосибирск, ул. Мичурина, д. 19 ",
    "Label": "ООО \"Даяна\"",
    "Id": 467
  },
  {
    "Latitude": "55.043948",
    "Longitude": "82.927787",
    "Address": "630112, обл. Новосибирская, г. Новосибирск, ул. Гоголя, д. 21, а, ",
    "Label": "ООО \"Даяна\"",
    "Id": 468
  },
  {
    "Latitude": "54.981572",
    "Longitude": "82.869944",
    "Address": " обл. Новосибирская, г. Новосибирск, ул. Титова, д. 29 ",
    "Label": "ООО  \"Дента-плюс\" (Стоматология для всех)",
    "Id": 469
  },
  {
    "Latitude": "54.981572",
    "Longitude": "82.869944",
    "Address": "обл. Новосибирская, г Новосибирск, ул. Титова, д. 29",
    "Label": "ООО  \"Дента-плюс\" (Стоматология для всех)",
    "Id": 470
  },
  {
    "Latitude": "55.017715",
    "Longitude": "82.944783",
    "Address": "630008, обл. Новосибирская, г. Новосибирск, ул. Кирова, д. 27 ",
    "Label": "ООО \"Блеск-Вест\"",
    "Id": 471
  },
  {
    "Latitude": "55.025028",
    "Longitude": "82.917447",
    "Address": "630099, обл. Новосибирская, г. Новосибирск, ул. Советская, д. 17А ",
    "Label": "ООО \"Со Блеск\"",
    "Id": 472
  },
  {
    "Latitude": "55.048513",
    "Longitude": "82.911446",
    "Address": "630091, обл. Новосибирская, г. Новосибирск, ул. Советская, д. 64 ",
    "Label": "ООО \"Денталия-Блеск\"",
    "Id": 473
  },
  {
    "Latitude": "54.989858",
    "Longitude": "82.903631",
    "Address": "630073, обл. Новосибирская, г. Новосибирск, ул. Геодезическая, д. 4, корп. 1",
    "Label": "ООО \"Блеск\" на Геодезической",
    "Id": 474
  },
  {
    "Latitude": "54.982957",
    "Longitude": "82.897567",
    "Address": "630064, обл. Новосибирская, г. Новосибирск, пр-кт Карла Маркса, д. 2 ",
    "Label": "ООО \"Блеск-Стом\"",
    "Id": 475
  },
  {
    "Latitude": "55.06091",
    "Longitude": "82.986528",
    "Address": "630051, обл. Новосибирская, г. Новосибирск, пр-кт Дзержинского, д. 40 ",
    "Label": "ООО \"Дентокс Плюс\"",
    "Id": 476
  },
  {
    "Latitude": "54.999165",
    "Longitude": "83.010513",
    "Address": "630126, обл. Новосибирская, г. Новосибирск, ул. Выборная, д. 122 ",
    "Label": "Стоматологическая клиника \"Ваш Докторъ\" (ООО Эксклюзив)",
    "Id": 477
  },
  {
    "Latitude": "55.010674",
    "Longitude": "82.942735",
    "Address": "г. Новосибирск, ул. Якушева, д. 41",
    "Label": "ООО \"Е.В.А.ДЕНТ\"",
    "Id": 478
  },
  {
    "Latitude": "55.038604",
    "Longitude": "82.976044",
    "Address": "обл. Новосибирская, г Новосибирск, ул. Кошурникова, д. 39\/1,  эт. 3",
    "Label": "ООО \"Алфей 2\"",
    "Id": 479
  },
  {
    "Latitude": "54.995116",
    "Longitude": "82.97184",
    "Address": "630083, обл. Новосибирская, г. Новосибирск, ул. Большевистская, д. 175\/6",
    "Label": "ЗАО \"Стоматологическая поликлиника №4\"",
    "Id": 480
  },
  {
    "Latitude": "55.042968",
    "Longitude": "82.951152",
    "Address": "630112, обл. Новосибирская, г. Новосибирск, ул. Кошурникова, д. 8",
    "Label": "ООО \"32\" (Стоматология доктора Зубанова)",
    "Id": 481
  },
  {
    "Latitude": "55.033011",
    "Longitude": "82.935171",
    "Address": "обл Новосибирская, г. Новосибирск, ул Трудовая, д 24",
    "Label": "ООО Стоматология Сибири",
    "Id": 482
  },
  {
    "Latitude": "54.847058",
    "Longitude": "83.103156",
    "Address": "обл. Новосибирская, г. Новосибирск, пр-кт Коптюга, д. 4\/1",
    "Label": "ООО Стоматологический кабинет  \"Улыбка\"",
    "Id": 483
  },
  {
    "Latitude": "55.039574",
    "Longitude": "82.908338",
    "Address": "630132, обл. Новосибирская, г. Новосибирск, ул. Челюскинцев, д. 44 ",
    "Label": "ООО Стоматологический центр \"Магия Здоровья\"",
    "Id": 484
  },
  {
    "Latitude": "55.024719",
    "Longitude": "82.914429",
    "Address": "630099, обл. Новосибирская, г. Новосибирск, ул. Урицкого, д. 6",
    "Label": "ООО Эстетика",
    "Id": 485
  },
  {
    "Latitude": "55.042968",
    "Longitude": "82.951152",
    "Address": "630112, обл. Новосибирская, г. Новосибирск, ул. Кошурникова, д. 8, офис 13",
    "Label": "ООО \"СибДент\"",
    "Id": 486
  },
  {
    "Latitude": "55.060972",
    "Longitude": "82.904574",
    "Address": "обл. Новосибирская, г. Новосибирск, ул. Дачная, д. 21\/5",
    "Label": "ООО Стоматологическая клиника \"Щелкунчик\"",
    "Id": 487
  },
  {
    "Latitude": "54.854781",
    "Longitude": "83.049607",
    "Address": "630058, обл. Новосибирская, г. Новосибирск, ул. Балтийская, д. 25",
    "Label": "ООО \"Алита\"",
    "Id": 488
  },
  {
    "Latitude": "54.850998",
    "Longitude": "83.101108",
    "Address": "обл. Новосибирская, г Новосибирск, пр-кт Академика Лаврентьева, д. 6\/3",
    "Label": "ООО \"Смарт\"",
    "Id": 489
  },
  {
    "Latitude": "55.053046",
    "Longitude": "82.897792",
    "Address": "обл. Новосибирская, г. Новосибирск, ул. Дуси Ковальчук, д. 238, офис 4",
    "Label": "ООО \"Дентал Тайм\"",
    "Id": 490
  },
  {
    "Latitude": "55.043479",
    "Longitude": "82.949113",
    "Address": "630112, обл. Новосибирская, г. Новосибирск, пр-кт Дзержинского, д. 1\/1 ",
    "Label": "ООО \"Центр стоматологии на Березовой роще\"",
    "Id": 491
  },
  {
    "Latitude": "55.030375",
    "Longitude": "83.019244",
    "Address": "обл. Новосибирская, г. Новосибирск, ул. Высоцкого, д. 45",
    "Label": "ООО \"СмайлСибирь\" (Зубная фея)",
    "Id": 492
  },
  {
    "Latitude": "54.931841",
    "Longitude": "82.929206",
    "Address": "обл. Новосибирская, г. Новосибирск, ул. Зорге, д. 275",
    "Label": "ООО \"Центр \"Лаура\"",
    "Id": 493
  },
  {
    "Latitude": "54.945071",
    "Longitude": "83.19632",
    "Address": "обл. Новосибирская, пос. Кольцово, ул. , д. 37",
    "Label": "ООО \"СмайлСибирь\" (Зубная фея)",
    "Id": 494
  },
  {
    "Latitude": "55.05694",
    "Longitude": "82.932808",
    "Address": "обл. Новосибирская, г. Новосибирск, ул. Кропоткина, д. 267\/1",
    "Label": "ООО Кропоткинская стоматологическая клиника",
    "Id": 495
  },
  {
    "Latitude": "55.041013",
    "Longitude": "82.91301",
    "Address": "обл. новосибирская, г. Новосибирск, ул. Советская, д. 81",
    "Label": "ООО \"АБВДент\"",
    "Id": 496
  },
  {
    "Latitude": "55.011717",
    "Longitude": "82.93748",
    "Address": "обл. Новосибирская, г Новосибирск, ул. Зыряновская, д. 55",
    "Label": "ООО \"Дентал приват\"",
    "Id": 497
  },
  {
    "Latitude": "54.977279",
    "Longitude": "83.044855",
    "Address": "обл. Новосибирская, г. Новосибирск, ул. Заречная, д. 4",
    "Label": "ООО \"Сити-Мед\"",
    "Id": 498
  },
  {
    "Latitude": "55.030261",
    "Longitude": "82.907584",
    "Address": "630004, обл. Новосибирская, г. Новосибирск, ул. Салтыкова Щедрина, д. 1 ",
    "Label": "ЧУЗ \"Клиническая больница \"РЖД-Медицина\" города Новосибирск\" Стоматология",
    "Id": 499
  },
  {
    "Latitude": "54.991795",
    "Longitude": "82.884811",
    "Address": "630078, обл. Новосибирская, г. Новосибирск, ул. Котовского, д. 5, корп. 3",
    "Label": "Государственное автономное учреждение здравоохранения Новосибирской области \"Клиническая стоматологическая поликлиника №1\"",
    "Id": 500
  },
  {
    "Latitude": "55.027893",
    "Longitude": "82.926242",
    "Address": "630099, обл. Новосибирская, г. Новосибирск, ул. Максима Горького, д. 77",
    "Label": "ООО \"Частная практика\" (Даймонд Дент)",
    "Id": 501
  },
  {
    "Latitude": "54.857834",
    "Longitude": "82.978308",
    "Address": "630056, обл. Новосибирская, г. Новосибирск, ул. Молодости, д. 21, офис 13",
    "Label": "ООО \"Интермедгруп\"",
    "Id": 502
  },
  {
    "Latitude": "55.032464",
    "Longitude": "82.930338",
    "Address": "обл. Новосибирская, г. Новосибирск, ул. Орджоникидзе, д. 43а",
    "Label": "ООО \"Радента\"",
    "Id": 503
  },
  {
    "Latitude": "54.995214",
    "Longitude": "82.89092",
    "Address": "обл. Новосибирская, г. Новосибирск, мкр. Горский, д. 69",
    "Label": "ООО \"ТАРИ\"",
    "Id": 504
  },
  {
    "Latitude": "54.855812",
    "Longitude": "83.050003",
    "Address": "630058, обл. Новосибирская, г. Новосибирск, ул. Балтийская, д. 31",
    "Label": "ООО \"Навидент\"",
    "Id": 505
  },
  {
    "Latitude": "54.869508",
    "Longitude": "83.09225",
    "Address": "630117, обл. Новосибирская, г. Новосибирск, ул. Иванова, д. 31\/1",
    "Label": "ООО \"Навидент\"",
    "Id": 506
  },
  {
    "Latitude": "54.869352",
    "Longitude": "83.084938",
    "Address": "630055, обл. Новосибирская, г. Новосибирск, ул. Российская, д. 21",
    "Label": "ООО \"Арта\"",
    "Id": 507
  },
  {
    "Latitude": "55.03571",
    "Longitude": "82.922145",
    "Address": "г. Новосибирск, ул. Романова, д. 39",
    "Label": "ООО \"Голден Дент\"",
    "Id": 508
  },
  {
    "Latitude": "55.042184",
    "Longitude": "82.951421",
    "Address": "630112, обл. Новосибирская, г. Новосибирск, ул. Кошурникова, д. 10 ",
    "Label": "ЗАО\"Стоматологическая поликлиника №9\"",
    "Id": 509
  },
  {
    "Latitude": "55.042586",
    "Longitude": "82.937201",
    "Address": "обл. Новосибирская, г. Новосибирск, ул. Крылова, д. 63",
    "Label": "ООО \"Сити-Дент\"",
    "Id": 510
  },
  {
    "Latitude": "55.020905",
    "Longitude": "82.946813",
    "Address": "г. Новосибирск, ул. Сакко и Ванцетти, д. 77, офис 102",
    "Label": "ООО \"Лечебно-исследовательский центр Биотехнологии Дент\"",
    "Id": 511
  },
  {
    "Latitude": "55.044315",
    "Longitude": "82.978281",
    "Address": "630089, обл. Новосибирская, г. Новосибирск, ул. Лежена, д. 13",
    "Label": "ООО \"Дентал Соло\"",
    "Id": 512
  },
  {
    "Latitude": "55.050808",
    "Longitude": "82.900325",
    "Address": "630049, обл. Новосибирская, г. Новосибирск, ул. Галущака, д. 2 ",
    "Label": "ООО Стоматологическая клиника  Мечковских",
    "Id": 513
  },
  {
    "Latitude": "55.029766",
    "Longitude": "82.913423",
    "Address": "630099, обл. Новосибирская, г. Новосибирск, ул. Ленина, д. 12 ",
    "Label": "ООО \"Центр Стоматологии\"",
    "Id": 514
  },
  {
    "Latitude": "55.03976",
    "Longitude": "82.915498",
    "Address": "630091, обл. Новосибирская, г. Новосибирск, ул. Крылова, д. 4, офис 13",
    "Label": "ООО \"СД СТОМАТОЛОГИЯ\"",
    "Id": 515
  },
  {
    "Latitude": "55.020905",
    "Longitude": "82.946813",
    "Address": "630008, обл. Новосибирская, г. Новосибирск, ул. Сакко и Ванцетти, д. 77",
    "Label": "ООО \"Дентерпрайз\"",
    "Id": 516
  },
  {
    "Latitude": "55.0267",
    "Longitude": "82.910126",
    "Address": " обл. Новосибирская, г. Новосибирск, ул. Революции, д. 10 ",
    "Label": "ООО \"Дентерпрайз\"",
    "Id": 517
  },
  {
    "Latitude": "54.860772",
    "Longitude": "83.080806",
    "Address": " обл. Новосибирская, г. Новосибирск, ул. Героев труда, д. 4 ",
    "Label": "ООО \"Дентерпрайз\"",
    "Id": 518
  },
  {
    "Latitude": "54.988722",
    "Longitude": "82.8994",
    "Address": " обл. Новосибирская, г. Новосибирск, ул. Блюхера, д. 30 ",
    "Label": "ООО \"Дентерпрайз\"",
    "Id": 519
  },
  {
    "Latitude": "54.990617",
    "Longitude": "82.871067",
    "Address": "обл. Новосибирская, г. Новосибирск, ул. Станиславского, д. 3\/1",
    "Label": "ООО \"Дентерпрайз\"",
    "Id": 520
  },
  {
    "Latitude": "55.039404",
    "Longitude": "82.939923",
    "Address": "630112, обл. Новосибирская, г. Новосибирск, ул. Ломоносова, д. 68, оф. 3",
    "Label": "ООО Центр Стоматологии \"Дентиформ\"",
    "Id": 521
  },
  {
    "Latitude": "55.042504",
    "Longitude": "82.948969",
    "Address": "обл. Новосибирская, г. Новосибирск, ул. Кошурникова, д. 2\/1, офис 12",
    "Label": "ООО Центр Стоматологии \"Дентиформ\"",
    "Id": 522
  },
  {
    "Latitude": "54.980332",
    "Longitude": "82.897918",
    "Address": "630048, обл. Новосибирская, г. Новосибирск, пл. Карла Маркса, д. 7 ",
    "Label": "ООО \"МЭРКС\"  (\"Актуальная стоматология\")",
    "Id": 523
  },
  {
    "Latitude": "54.842455",
    "Longitude": "83.103012",
    "Address": "630090, обл. Новосибирская, г. Новосибирск, пр-кт Академика Коптюга, д. 11",
    "Label": "ООО \"Академия\"",
    "Id": 524
  },
  {
    "Latitude": "54.982254",
    "Longitude": "82.904431",
    "Address": "обл. Новосибирская, г . Новосибирск, ул. Новогодняя, д. 12\/1, офис 1",
    "Label": "ООО \"Альфа\" (Скайдент)",
    "Id": 525
  },
  {
    "Latitude": "55.056496",
    "Longitude": "82.906353",
    "Address": "обл. Новосибирская, г. Новосибирск, ул. Д. Ковальчук, д. 252, офис 3",
    "Label": "ООО \"МЦ Альтернатива\"",
    "Id": 526
  },
  {
    "Latitude": "55.02813",
    "Longitude": "82.940219",
    "Address": "обл. Новосибирская, г. Новосибирск, ул. Военная, д. 9\/2",
    "Label": "ООО \"СТОМ ПЛЮС ХИРУРГИЯ\"",
    "Id": 527
  },
  {
    "Latitude": "55.02813",
    "Longitude": "82.940219",
    "Address": "обл. Новосибирская, г. Новосибирск, ул. Военная, д. 9\/2",
    "Label": "ООО \"СТОМ ПЛЮС\"",
    "Id": 528
  },
  {
    "Latitude": "54.982254",
    "Longitude": "82.904431",
    "Address": "обл. Новосибирская, г. Новосибирск, ул. Новогодняя, д. 12\/1",
    "Label": "ООО \"СТОМ ПЛЮС\"",
    "Id": 529
  },
  {
    "Latitude": "55.043231",
    "Longitude": "82.94313",
    "Address": "обл. Новосибирская, г. Новосибирск, ул. Карамзина, д. 92",
    "Label": "ООО \"Клиника профессора Пасман\"",
    "Id": 530
  },
  {
    "Latitude": "55.051293",
    "Longitude": "82.920609",
    "Address": "630000, обл. Новосибирская, г. Новосибирск, ул. Линейная, д. 114 ",
    "Label": "ООО Клиника доктора Семениченко",
    "Id": 531
  },
  {
    "Latitude": "55.039656",
    "Longitude": "82.899562",
    "Address": "630132, г. Новосибирск, ул. Салтыкова-Щедрина, д. 118",
    "Label": "ООО \"РекоменДент\"",
    "Id": 532
  },
  {
    "Latitude": "55.047255",
    "Longitude": "82.905554",
    "Address": "обл. Новосибирская, г Новосибирск, ул. Железнодорожная, д. 15\/2",
    "Label": "ООО \"СТОМАТИКА\"",
    "Id": 533
  },
  {
    "Latitude": "54.843735",
    "Longitude": "83.101251",
    "Address": "обл. Новосибирская, г. Новосибирск, пр-кт академика Коптюга, д. 9",
    "Label": "ООО \"Баланс Белого\"",
    "Id": 534
  },
  {
    "Latitude": "55.03976",
    "Longitude": "82.915498",
    "Address": "630091, обл. Новосибирская, г. Новосибирск, ул. Крылова, д. 4",
    "Label": "ООО \"Стиль Дент\"",
    "Id": 535
  },
  {
    "Latitude": "55.110239",
    "Longitude": "82.941037",
    "Address": "630061, обл. Новосибирская, г. Новосибирск, ул. Гребенщикова, д. 8",
    "Label": "ООО \"Стиль Дент\"",
    "Id": 536
  },
  {
    "Latitude": "55.043386",
    "Longitude": "82.935683",
    "Address": "630005, обл. Новосибирская, г. Новосибирск, ул. Гоголя, д. 38 ",
    "Label": "ООО \"Стиль Дент\"",
    "Id": 537
  },
  {
    "Latitude": "55.197271",
    "Longitude": "80.291761",
    "Address": "обл. Новосибирская, г . Каргат, ул. Трудовая, д. 30",
    "Label": "ГБУЗ НСО \"Каргатская ЦРБ\"",
    "Id": 538
  },
  {
    "Latitude": "55.015129",
    "Longitude": "82.947137",
    "Address": "630000, обл. Новосибирская, г. Новосибирск, ул. Кирова, д. 82 ",
    "Label": "ООО Медицинский центр \"Биовэр\"",
    "Id": 539
  },
  {
    "Latitude": "55.045057",
    "Longitude": "82.932763",
    "Address": " обл. Новосибирская, г. Новосибирск, ул. Ольги Жилиной, д. 73\/2 ",
    "Label": "ООО Медицинский центр \"Биовэр\"",
    "Id": 540
  },
  {
    "Latitude": "54.983298",
    "Longitude": "82.914375",
    "Address": "обл. Новосибирская, г. Новосибирск, ул. Немировича-Данченко, д. 130",
    "Label": "ГБУЗ НСО Государственная Новосибирская областная клиническая больница (ГНОКБ)",
    "Id": 541
  },
  {
    "Latitude": "55.013957",
    "Longitude": "82.944334",
    "Address": "обл. Новосибирская, г. Новосибирск, ул. Восход, д. 28",
    "Label": "ООО \"КЛИНИКА НМТ\"",
    "Id": 542
  },
  {
    "Latitude": "55.031365",
    "Longitude": "82.914195",
    "Address": "обл. Новосибирская, г. Новосибирск, ул. Вокзальная магистраль, д. 16",
    "Label": "ООО \"Клиника Санитас в Медпарке\"",
    "Id": 543
  },
  {
    "Latitude": "54.856916",
    "Longitude": "83.111106",
    "Address": "обл Новосибирская, г Новосибирск, ул Николаева, д 12\/3",
    "Label": "ООО \"Клиника Санитас в Медпарке\"",
    "Id": 544
  },
  {
    "Latitude": "54.6178",
    "Longitude": "83.295629",
    "Address": "обл Новосибирская, г Искитим, ул Молдавская, д 50",
    "Label": "ООО \"Клиника Санитас в Медпарке\"",
    "Id": 545
  },
  {
    "Latitude": "55.036148",
    "Longitude": "82.917268",
    "Address": "обл. Новосибирская, г. Новосибирск, ул. Фрунзе, д. 4",
    "Label": "ООО МСЧ \"Клиницист\"",
    "Id": 546
  },
  {
    "Latitude": "55.050205",
    "Longitude": "82.912435",
    "Address": "обл. Новосибирская, г. Новосибирск, пр-кт Красный, д. 79\/2",
    "Label": "ООО МСЧ \"Клиницист\" В",
    "Id": 547
  },
  {
    "Latitude": "55.044985",
    "Longitude": "82.930805",
    "Address": "630005, обл. Новосибирская, г. Новосибирск, ул. Лермонтова, д. 40 ",
    "Label": "ГАУЗ НСО \"Городская поликлиника № 1\"",
    "Id": 548
  },
  {
    "Latitude": "55.044701",
    "Longitude": "82.93103",
    "Address": "630005, обл. Новосибирская, г. Новосибирск, ул. Лермонтова, д. 38 ",
    "Label": "ГАУЗ \"Городская поликлиника № 1\"",
    "Id": 549
  },
  {
    "Latitude": "55.02909",
    "Longitude": "82.925352",
    "Address": "обл. Новосибирская, г. . Новосибирск, ул. Серебренниковская, д. 42",
    "Label": "ГАУЗ \"Городская поликлиника № 1\"",
    "Id": 550
  },
  {
    "Latitude": "54.85872",
    "Longitude": "83.111537",
    "Address": "обл. Новосибирская, г. Новосибирск, ул. Николаева, д. 11\/5",
    "Label": "ООО Медицинский центр \"Астра-Мед\" ",
    "Id": 551
  },
  {
    "Latitude": "55.018056",
    "Longitude": "82.93924",
    "Address": "обл. Новосибирская, г. Новосибирск, ул. Кирова, д. 46",
    "Label": "ООО Медицинский центр \"Астра-Мед\" ",
    "Id": 552
  },
  {
    "Latitude": "54.98509",
    "Longitude": "82.897064",
    "Address": "обл. Новосибирская, г Новосибирск, пр-кт Карла Маркса, д. 7,  -",
    "Label": "ООО Медицинский центр \"Астра-Мед\"",
    "Id": 553
  },
  {
    "Latitude": "54.979728",
    "Longitude": "82.804268",
    "Address": "обл. Новосибирская, г. Новосибирск, ул. Титова, д. 246\/2",
    "Label": "ООО Медицинский центр \"Астра-Мед\"",
    "Id": 554
  },
  {
    "Latitude": "53.37974",
    "Longitude": "83.726578",
    "Address": "край Алтайский, г . Барнаул, ул. Эмилии Алексеевой, д. 32",
    "Label": "ООО \"Центр профессиональной медицины\"",
    "Id": 555
  },
  {
    "Latitude": "53.352004",
    "Longitude": "83.763579",
    "Address": "край Алтайский, г. Барнаул, пр-кт Строителей, д. 16",
    "Label": "ООО \"Центр профессиональной медицины\"",
    "Id": 556
  },
  {
    "Latitude": "54.872093",
    "Longitude": "83.106614",
    "Address": "обл Новосибирская, г Новосибирск, ул Арбузова, д 1\/1",
    "Label": "ЗАО \"Медэкспресс  Интернэшнл\"",
    "Id": 557
  },
  {
    "Latitude": "55.019036",
    "Longitude": "82.926332",
    "Address": "обл Новосибирская, г Новосибирск, ул Каинская, д 13",
    "Label": "ФГБУЗ Сибирский окружной медицинский центр Федерального медико-биологического агентства России (СОМЦ ФМБА)",
    "Id": 558
  },
  {
    "Latitude": "54.9375",
    "Longitude": "83.096526",
    "Address": "обл. Новосибирская, г. Новосибирск, ул. Одоевского, д. 12",
    "Label": "ФГБУЗ Сибирский окружной медицинский центр Федерального медико-биологического агентства России (СОМЦ ФМБА)",
    "Id": 559
  },
  {
    "Latitude": "54.871015",
    "Longitude": "83.078353",
    "Address": "обл. Новосибирская, г Новосибирск, ул. Разъездная, д. 14",
    "Label": "ООО  Управляющая Медицинская компания  Сердолик\"",
    "Id": 560
  },
  {
    "Latitude": "54.981205",
    "Longitude": "82.869387",
    "Address": "630054, обл. Новосибирская, г. Новосибирск, ул. Титова, д. 29, корп. 1",
    "Label": "ООО  Управляющая Медицинская компания  Сердолик\"",
    "Id": 561
  },
  {
    "Latitude": "54.982673",
    "Longitude": "82.825163",
    "Address": "630120, обл. Новосибирская, г. Новосибирск, ул. Танкистов, д. 23",
    "Label": "ГБУЗ НСО Городская клиническая больница №11",
    "Id": 562
  },
  {
    "Latitude": "54.989703",
    "Longitude": "82.880562",
    "Address": "обл. Новосибирская, г. Новосибирск, ул. пер 1-й Пархоменко, д. 32",
    "Label": "ГБУЗ НСО \"Городская поликлиника №16\"",
    "Id": 563
  },
  {
    "Latitude": "55.034281",
    "Longitude": "82.917169",
    "Address": "обл. Новосибирская, г Новосибирск, ул. Романова, д. 28",
    "Label": "ООО \"ЦВМиР \"СпортМед\"",
    "Id": 564
  },
  {
    "Latitude": "54.845622",
    "Longitude": "83.096661",
    "Address": "обл. Новосибирская, г . Новосибирск, ул. Ляпунова, д. 6",
    "Label": "ФГАОУ ВО Новосибирский национальный исследовательский государственный университет, НГУ\"",
    "Id": 565
  },
  {
    "Latitude": "54.962277",
    "Longitude": "82.93182",
    "Address": "обл. Новосибирская, г Новосибирск, ул. Мира, д. 62, корп. 8",
    "Label": "ЗАО \"Олмед\"",
    "Id": 566
  },
  {
    "Latitude": "54.942216",
    "Longitude": "82.897927",
    "Address": "обл. Новосибирская, г. Новосибирск, пл. Кирова, д. 27, стр. 1",
    "Label": "ООО Медицинский центр \"ЮНОНА\" ",
    "Id": 567
  },
  {
    "Latitude": "54.983313",
    "Longitude": "82.878433",
    "Address": "630054, обл. Новосибирская, г. Новосибирск, ул. Титова, д. 18 ",
    "Label": "ГБУЗ НСО Городская клиническая больница №34",
    "Id": 568
  },
  {
    "Latitude": "54.926177",
    "Longitude": "82.994541",
    "Address": "630501, обл. Новосибирская, пос. Краснообск, д. 116",
    "Label": "ООО \"Академмедикал\"",
    "Id": 569
  },
  {
    "Latitude": "54.869559",
    "Longitude": "83.103551",
    "Address": "630117, обл. Новосибирская, г. Новосибирск, ул. Арбузова, д. 6",
    "Label": "ООО \"Академмедикал\"",
    "Id": 570
  },
  {
    "Latitude": "54.843056",
    "Longitude": "83.101925",
    "Address": "обл. Новосибирская, г. Новосибирск, ул. Академика Коптюга, д. 13",
    "Label": "ООО \"Академмедикал\"",
    "Id": 571
  },
  {
    "Latitude": "54.872093",
    "Longitude": "83.106614",
    "Address": "обл. Новосибирская, г. Новосибирск, ул. Арбузова, д. 1\/1",
    "Label": "ООО \"Академмедикал\" ",
    "Id": 572
  },
  {
    "Latitude": "55.060848",
    "Longitude": "82.907602",
    "Address": "630049, обл. Новосибирская, г. Новосибирск, ул. М.Перевозчикова, д. 8",
    "Label": "ГБУЗ НСО \"Гинекологическая больница №2\"",
    "Id": 573
  },
  {
    "Latitude": "53.305104",
    "Longitude": "83.756572",
    "Address": "край Алтайский, г. Барнаул, ул. Ляпидевского, д. 1\/3",
    "Label": "ФГБУ \"ФЦТОЭ\"Минздрава России\"",
    "Id": 574
  },
  {
    "Latitude": "54.963305",
    "Longitude": "82.90055",
    "Address": "обл Новосибирская, г Новосибирск, ул Сибиряков-Гвардейцев, д 50",
    "Label": "ПАО \"Тяжстанкогидропресс\"",
    "Id": 575
  },
  {
    "Latitude": "54.972091",
    "Longitude": "83.10118",
    "Address": "обл. Новосибирская, г. Новосибирск, ул. Героев революции, д. 3",
    "Label": "ЧУЗ \"Клиническая больница \"РЖД-Медицина\" города Новосибирск\"",
    "Id": 576
  },
  {
    "Latitude": "55.035333",
    "Longitude": "82.903829",
    "Address": "630004, обл. Новосибирская, г. Новосибирск, ул. Сибирская, д. 21 ",
    "Label": "ЧУЗ \"Клиническая больница \"РЖД-Медицина\" города Новосибирск\"",
    "Id": 577
  },
  {
    "Latitude": "54.990617",
    "Longitude": "82.871067",
    "Address": "630108, обл. Новосибирская, г. Новосибирск, ул. Станиславского, д. 3\/1 ",
    "Label": "ООО \"Маммологический центр Вера\"",
    "Id": 578
  },
  {
    "Latitude": "55.038367",
    "Longitude": "82.903559",
    "Address": "обл. Новосибирская, г. Новосибирск, ул. Челюскинцев, д. 14\/2, офис 318",
    "Label": "ООО \"Маммологический центр Вера\"",
    "Id": 579
  },
  {
    "Latitude": "54.992833",
    "Longitude": "82.857727",
    "Address": "обл. Новосибирская, г. Новосибирск, ул. Троллейная, д. 1",
    "Label": "ООО \"Маммологический центр Вера\"",
    "Id": 580
  },
  {
    "Latitude": "54.938596",
    "Longitude": "83.183331",
    "Address": "обл. Новосибирская, пос. Кольцово, ул. АБК, корп. 3",
    "Label": "ГБУЗ НСО \"Новосибирская районная больница №1\"",
    "Id": 581
  },
  {
    "Latitude": "55.011717",
    "Longitude": "82.93748",
    "Address": "630102, обл. Новосибирская, г. Новосибирск, ул. Зыряновская, д. 55 ",
    "Label": "ООО \"Мелодия движения\"",
    "Id": 582
  },
  {
    "Latitude": "55.035921",
    "Longitude": "82.900963",
    "Address": "обл Новосибирская, г Новосибирск, ул Вокзальная магистраль, д 1\/1",
    "Label": "ООО \"Городской Центр Медосмотра\"",
    "Id": 583
  },
  {
    "Latitude": "55.042184",
    "Longitude": "82.951421",
    "Address": "630112, г. Новосибирск, ул. Кошурникова, д.10",
    "Label": "ЩУЧКИН АП",
    "Id": 584
  },
  {
    "Latitude": "55.074865",
    "Longitude": "82.945888",
    "Address": "обл. Новосибирская, г. Новосибирск, ул. Невского, д. 3",
    "Label": "ООО \"Центр лечебно-профилактических технологий\"",
    "Id": 585
  },
  {
    "Latitude": "54.981836",
    "Longitude": "82.889824",
    "Address": "обл. Новосибирская, г. Новосибирск, ул. Титова, д. 1",
    "Label": "Муниципальное предприятие г. Новосибирска \"Новосибирская аптечная сеть\"",
    "Id": 586
  },
  {
    "Latitude": "54.761394",
    "Longitude": "83.094927",
    "Address": "обл. Новосибирская, г. Бердск, ул. Первомайская, д. 19А",
    "Label": "ООО \"Клиника 1+1\"",
    "Id": 587
  },
  {
    "Latitude": "54.993298",
    "Longitude": "82.894055",
    "Address": "обл. Новосибирская, г. Новосибирск, мкр. Горский, д. 64",
    "Label": "ООО Медицинский центр \"Семейный доктор Нск\"",
    "Id": 588
  },
  {
    "Latitude": "54.986609",
    "Longitude": "82.815758",
    "Address": "обл. Новосибирская, г. Новосибирск, ул. Колхидская, д. 6",
    "Label": "ООО Медицинский центр \"Семейный доктор Нск\"",
    "Id": 589
  },
  {
    "Latitude": "54.979469",
    "Longitude": "83.050676",
    "Address": "обл. Новосибирская, г. Новосибирск, ул. Заречная, д. 17",
    "Label": "ООО Медицинский центр \"Семейный доктор Нск\"",
    "Id": 590
  },
  {
    "Latitude": "54.981205",
    "Longitude": "82.869387",
    "Address": "обл. Новосибирская, г. Новосибирск, ул. Титова, д. 29\/1",
    "Label": "ООО \"Варикоза нет\"",
    "Id": 591
  },
  {
    "Latitude": "55.036112",
    "Longitude": "82.919397",
    "Address": "630091, обл. Новосибирская, г. Новосибирск, пр-кт Красный, д. 52 ",
    "Label": "ФГБОУ ВО НГМУ Минздрава РФ",
    "Id": 592
  },
  {
    "Latitude": "55.041049",
    "Longitude": "82.918795",
    "Address": "630091, обл. Новосибирская, г. Новосибирск, ул. Крылова, д. 7\/1 ",
    "Label": "ООО \"Центр общей медицины\"",
    "Id": 593
  },
  {
    "Latitude": "55.066092",
    "Longitude": "82.992133",
    "Address": "630051, обл. Новосибирская, г. Новосибирск, ул. Ползунова, д. 21",
    "Label": "ГБУЗ НСО \"Городская клиническая больница №2\"",
    "Id": 594
  },
  {
    "Latitude": "55.047538",
    "Longitude": "82.930419",
    "Address": "обл. Новосибирская, г. Новосибирск, ул. Демьяна Бедного, д. 52\/1",
    "Label": "ООО \"МЦ Ласточка\"",
    "Id": 595
  },
  {
    "Latitude": "55.029363",
    "Longitude": "82.927329",
    "Address": "630099, обл. Новосибирская, г. Новосибирск, ул. Депутатская, д. 48  ",
    "Label": "ООО Медицинский центр \"НАЕДИНЕ-Н\" Стоматология",
    "Id": 596
  },
  {
    "Latitude": "54.872056",
    "Longitude": "83.103048",
    "Address": "обл. Новосибирская, г Новосибирск, ул. Арбузова, д. 1\/1, корп. 4",
    "Label": "ООО Клиника микрохирургии глаза \"ВИЖУ\"",
    "Id": 597
  },
  {
    "Latitude": "55.11944",
    "Longitude": "82.888153",
    "Address": "обл. Новосибирская, г. Новосибирск, ул. Охотская, д. 81а",
    "Label": "ФГБУ \"Новосибирский научно-исследовательский институт туберкулеза\" Минздрава России (ННИИТ-Новоклиник)",
    "Id": 598
  },
  {
    "Latitude": "55.067623",
    "Longitude": "82.925352",
    "Address": "630075, обл. Новосибирская, г. Новосибирск, ул. Залесского, д. 5\/1 ",
    "Label": "ФГБУ \"Новосибирский научно-исследовательский институт туберкулеза\" Минздрава России (ННИИТ-Новоклиник)",
    "Id": 599
  },
  {
    "Latitude": "55.076726",
    "Longitude": "82.948897",
    "Address": "г. Новосибирск, ул. Александра Невского, д. 1а",
    "Label": "ГБУЗ НСО \"Городская клиническая больница №25\" ",
    "Id": 600
  },
  {
    "Latitude": "55.077715",
    "Longitude": "82.951035",
    "Address": "обл. Новосибирская, г. Новосибирск, ул. Александра Невского, д. 15",
    "Label": "ГБУЗ НСО \"Городская клиническая больница №25\"",
    "Id": 601
  },
  {
    "Latitude": "55.045057",
    "Longitude": "82.932763",
    "Address": "обл. Новосибирская, г. Новосибирск, ул. Ольги Жилиной, д. 73\/2",
    "Label": "ООО \"ЛКДЦ\"- центр репродуктивного здоровья",
    "Id": 602
  },
  {
    "Latitude": "55.01723",
    "Longitude": "82.936707",
    "Address": "630102, обл. Новосибирская, г. Новосибирск, ул. Нижегородская, д. 4",
    "Label": "ООО \"ЛКДЦ\" (Репродуктивное здоровье +)",
    "Id": 603
  },
  {
    "Latitude": "54.84585",
    "Longitude": "83.118023",
    "Address": "630090, обл. Новосибирская, г. Новосибирск, ул. Институтская, д. 3а ",
    "Label": "ФГБУН Институт \"Международный томографический центр\" (МТЦ СО РАН)",
    "Id": 604
  },
  {
    "Latitude": "54.850858",
    "Longitude": "83.090139",
    "Address": "обл. Новосибирская, г. Новосибирск, ул. Пирогова, д. 25\/3",
    "Label": "ФГБУН Институт \"Международный томографический центр\" (МТЦ СО РАН)",
    "Id": 605
  },
  {
    "Latitude": "54.864342",
    "Longitude": "83.113873",
    "Address": "обл. Новосибирская, г. Новосибирск, ул. Пасечная, д. 1, корп. 2",
    "Label": "ООО \"ДОЛГОЛЕТИЕ\"",
    "Id": 606
  },
  {
    "Latitude": "55.049498",
    "Longitude": "82.914384",
    "Address": "г. Новосибирск, пр-кт Красный, д. 77\/1",
    "Label": "ООО \"Клиника доктора Рогажинскас\"",
    "Id": 607
  },
  {
    "Latitude": "55.048884",
    "Longitude": "82.884695",
    "Address": "обл. Новосибирская, г. Новосибирск, ул. Дуси Ковальчук, д. 7\/1",
    "Label": "ООО \"Андромед-клиника\" (ЕвроМед клиника)",
    "Id": 608
  },
  {
    "Latitude": "55.043685",
    "Longitude": "82.939312",
    "Address": "обл. Новосибирская, г. Новосибирск, ул. Гоголя, д. 42",
    "Label": "ООО \"Андромед-клиника\" ",
    "Id": 609
  },
  {
    "Latitude": "54.222958",
    "Longitude": "83.371492",
    "Address": "обл. Новосибирская, г. Черепаново, ул. Партитзанская, д. 53, офис 1",
    "Label": "ООО \"Астралаб\"",
    "Id": 610
  },
  {
    "Latitude": "55.038656",
    "Longitude": "82.92714",
    "Address": "обл. Новосибирская, г. Новосибирск, ул. Фрунзе, д. 17д",
    "Label": "ФГБУ \"ННИИТО им. Я.Л. Цивьяна\"",
    "Id": 611
  },
  {
    "Latitude": "54.939843",
    "Longitude": "82.893283",
    "Address": "г. Новосибирск, ул. Петухова, д. 16\/1",
    "Label": "ООО \"Санталь\"",
    "Id": 612
  },
  {
    "Latitude": "54.982192",
    "Longitude": "82.885126",
    "Address": "обл. Новосибирская, г. Новосибирск, ул. Титова, д. 7",
    "Label": "ООО \"АллергоСити плюс\"",
    "Id": 613
  },
  {
    "Latitude": "55.031216",
    "Longitude": "82.908473",
    "Address": "обл Новосибирская, г Новосибирск, пр-кт Димитрова, д 1",
    "Label": "ООО \"Катарсис\" ",
    "Id": 614
  },
  {
    "Latitude": "55.050808",
    "Longitude": "82.900325",
    "Address": "обл. Новосибирская, г. Новосибирск, ул. Галущака, д. 2",
    "Label": "ООО \"Лор-Здрав\" (Лор тайм)",
    "Id": 615
  },
  {
    "Latitude": "55.02909",
    "Longitude": "82.925352",
    "Address": "обл. Новосибирская, г. Новосибирск, ул. Серебренниковская, д. 42",
    "Label": "ООО \"Новосибирский поликлинический центр\" В",
    "Id": 616
  },
  {
    "Latitude": "55.019522",
    "Longitude": "82.935503",
    "Address": "обл. Новосибирская, г . Новосибирск, ул. Кирова, д. 32",
    "Label": "ООО \"КЛК Эксперт Зрения\"",
    "Id": 617
  },
  {
    "Latitude": "55.045692",
    "Longitude": "82.923601",
    "Address": "обл. Новосибирская, г Новосибирск, ул. Некрасова, д. 35",
    "Label": "ООО \"МЦ\" \"XXI век\" - Новосибирск\"",
    "Id": 618
  },
  {
    "Latitude": "55.067319",
    "Longitude": "82.930221",
    "Address": "обл. Новосибирская, г. Новосибирск, ул. Залесского, д. 2\/1",
    "Label": "ФГБМУ Научно-исследовательский институт фундаментальной и клинической иммунологии Сибирского отделения РАМН  (НИИКИ)",
    "Id": 619
  },
  {
    "Latitude": "55.068705",
    "Longitude": "82.930042",
    "Address": "обл. Новосибирская, г. Новосибирск, ул. Залесского, д. 6, корп. 9",
    "Label": "ФГБМУ Научно-исследовательский институт фундаментальной и клинической иммунологии Сибирского отделения РАМН  (НИИКИ)",
    "Id": 620
  },
  {
    "Latitude": "55.032573",
    "Longitude": "82.921094",
    "Address": "630099, обл. Новосибирская, г. Новосибирск, ул. Ядринцевская, д. 14",
    "Label": "ФГБНУ \"научно-исследовательский институт фундаментальной и клинической иммунологии\"",
    "Id": 621
  },
  {
    "Latitude": "55.032573",
    "Longitude": "82.921094",
    "Address": "630099, обл. Новосибирская, г. Новосибирск, ул. Ядринцевская, д. 14 ",
    "Label": "ООО \"Реафан\"",
    "Id": 622
  },
  {
    "Latitude": "55.034239",
    "Longitude": "82.921741",
    "Address": "обл. Новосибирская, г Новосибирск, ул. Потанинская, д. 9",
    "Label": "ООО \"Реафан\" ",
    "Id": 623
  },
  {
    "Latitude": "55.055759",
    "Longitude": "82.904206",
    "Address": "обл. Новосибирская, г Новосибирск, ул. Дуси Ковальчук, д. 250",
    "Label": "ООО Медицинский центр \"Внимание\" ",
    "Id": 624
  },
  {
    "Latitude": "55.044645",
    "Longitude": "82.908509",
    "Address": "обл. Новосибирская, г. Новосибирск, ул. 1905 года, д. 73",
    "Label": "ООО Центры Семейной Медицины \"Здравица\"",
    "Id": 625
  },
  {
    "Latitude": "55.038975",
    "Longitude": "82.927742",
    "Address": "обл Новосибирская, г Новосибирск, ул Державина, д 28",
    "Label": "ООО Центры Семейной Медицины \"Здравица\" ",
    "Id": 626
  },
  {
    "Latitude": "55.023098",
    "Longitude": "82.940597",
    "Address": " обл. Новосибирская, г. Новосибирск, ул. Шевченко, д. 31а ",
    "Label": "ООО Центры Семейной Медицины \"Здравица\"",
    "Id": 627
  },
  {
    "Latitude": "55.060678",
    "Longitude": "82.919046",
    "Address": " обл. Новосибирская, г. Новосибирск, ул. Дуси Ковальчук, д. 272\/1 ",
    "Label": "ООО Центры Семейной Медицины \"Здравица\"",
    "Id": 628
  },
  {
    "Latitude": "54.980332",
    "Longitude": "82.897918",
    "Address": " обл. Новосибирская, г. Новосибирск, пл. Карла Маркса, д. 7 ",
    "Label": "ООО Центры Семейной Медицины \"Здравица\"",
    "Id": 629
  },
  {
    "Latitude": "54.98258",
    "Longitude": "82.874301",
    "Address": "обл. Новосибирская, г. Новосибирск, ул. Титова, д. 22а",
    "Label": "ООО Центры Семейной Медицины \"Здравица\"",
    "Id": 630
  },
  {
    "Latitude": "55.041121",
    "Longitude": "82.94578",
    "Address": "обл. Новосибирская, г. Новосибирск, ул. Державина, д. 77\/1",
    "Label": "ООО \"Аванта-мед\"",
    "Id": 631
  },
  {
    "Latitude": "55.050808",
    "Longitude": "82.900325",
    "Address": "обл. Новосибирская, г. Новосибирск, ул. Галущака, д. 2",
    "Label": "ООО \"РИК\"",
    "Id": 632
  },
  {
    "Latitude": "55.030204",
    "Longitude": "82.92043",
    "Address": "обл. Новосибирская, г. Новосибирск, ул. Владимирский спуск, д. 2а",
    "Label": "ЧУЗ \"Клиническая больница \"РЖД-Медицина\" города Новосибирск\"",
    "Id": 633
  },
  {
    "Latitude": "54.837649",
    "Longitude": "83.0927",
    "Address": "обл. Новосибирская, г. Новосибирск, ул. Жемчужная, д. 20",
    "Label": "АНО \"Клиника травматологии, ортопедии и нейрохирургии НИИТО\" ",
    "Id": 634
  },
  {
    "Latitude": "55.037521",
    "Longitude": "82.927302",
    "Address": "обл. Новосибирская, г. Новосибирск, ул. Фрунзе, д. 17",
    "Label": "АНО \"Клиника травматологии, ортопедии и нейрохирургии НИИТО\" ",
    "Id": 635
  },
  {
    "Latitude": "55.068123",
    "Longitude": "82.927472",
    "Address": "630136, обл. Новосибирская, г. Новосибирск, ул. Залесского, д. 6, корп. 12",
    "Label": "ООО \"Альба-Мед\"",
    "Id": 636
  },
  {
    "Latitude": "54.997781",
    "Longitude": "83.013315",
    "Address": "обл. Новосибирск, г. Новосибирск, ул. Выборная, д. 126\/1",
    "Label": "OOO Медицинский центр \"Здоровье и Материнство\"",
    "Id": 637
  },
  {
    "Latitude": "55.019836",
    "Longitude": "82.922056",
    "Address": "обл. Новосибирская, г. Новосибирск, ул. Советская, д. 2",
    "Label": "ГБУЗ НСО \"Государственный Новосибирский областной клинический госпиталь ветеранов войн\"",
    "Id": 638
  },
  {
    "Latitude": "54.994997",
    "Longitude": "82.909434",
    "Address": "обл. Новосибирская, г. Новосибирск, мкр. Горский, д. 8",
    "Label": "ООО \"Клиника практической медицины\"(Диагност)",
    "Id": 639
  },
  {
    "Latitude": "55.049957",
    "Longitude": "82.917348",
    "Address": "630005, обл. Новосибирская, г. Новосибирск, ул. Красный проспект, д. 86\/2, офис 501",
    "Label": "ООО \"МЦ \"Медлайн-Новосибирск\"",
    "Id": 640
  },
  {
    "Latitude": "54.850858",
    "Longitude": "83.090139",
    "Address": "обл. Новосибирская, г Новосибирск, ул. Пирогова, д. 25\/3",
    "Label": "ФГБУЗ Центральная клиническая больница Сибирского отделения Российской академии наук (ЦКБ СО РАН)",
    "Id": 641
  },
  {
    "Latitude": "54.833309",
    "Longitude": "83.109848",
    "Address": "г. Новосибирск, ул. Воеводского, д. 18",
    "Label": "ФГБУЗ Центральная клиническая больница Сибирского отделения Росийской академии наук (ЦКБ СО РАН)",
    "Id": 642
  },
  {
    "Latitude": "54.87043",
    "Longitude": "83.087786",
    "Address": " г. Новосибирск, ул. Гнесиных, д. 10\/1",
    "Label": "ООО \"Доверенный врач\"",
    "Id": 643
  },
  {
    "Latitude": "54.987177",
    "Longitude": "82.891827",
    "Address": "обл. Новосибирская, г. Новосибирск, ул. Ватутина, д. 17",
    "Label": "ООО \"МедиоМед\" В",
    "Id": 644
  },
  {
    "Latitude": "54.888667",
    "Longitude": "83.118957",
    "Address": "630117, обл. Новосибирская, г. Новосибирск, ул. Тимакова, д. 2 ",
    "Label": "ФГБУН \"Федеральный исследовательский центр фундаментальной и трансляционной медицины\"",
    "Id": 645
  },
  {
    "Latitude": "55.053676",
    "Longitude": "82.926296",
    "Address": "630015, обл. Новосибирская, г. Новосибирск, ул. Кропоткина, д. 116а, корп. 2",
    "Label": "ООО \"Медицинский центр \"Древо жизни\"",
    "Id": 646
  },
  {
    "Latitude": "54.982662",
    "Longitude": "82.869396",
    "Address": "630054, обл. Новосибирская, г. Новосибирск, ул. Крашенинникова 3-й переок, д. 12",
    "Label": "ООО \"Адрем\"",
    "Id": 647
  },
  {
    "Latitude": "55.062735",
    "Longitude": "82.911096",
    "Address": "обл. Новосибирская, г . Новосибирск, пр-кт Красный, д. 163",
    "Label": "ООО \"Адрем\"",
    "Id": 648
  },
  {
    "Latitude": "54.990592",
    "Longitude": "82.902185",
    "Address": "обл. Новосибирская, г Новосибирск, ул. Геодезическая, д. 2\/1",
    "Label": "ООО \"Адрем\"",
    "Id": 649
  },
  {
    "Latitude": "54.979702",
    "Longitude": "82.894109",
    "Address": "обл. Новосибирская, г. Новосибирск, ул. Покрышкина, д. 1",
    "Label": "ООО \"Врачебная практика\"",
    "Id": 650
  },
  {
    "Latitude": "55.051969",
    "Longitude": "82.905015",
    "Address": "обл. Новосибирская, г. Новосибирск, ул. Галущака, д. 5",
    "Label": "ООО \"Альфа Клиник\"",
    "Id": 651
  },
  {
    "Latitude": "55.073417",
    "Longitude": "82.948619",
    "Address": "обл Новосибирская, г Новосибирск, ул Богдана Хмельницкого, д 31",
    "Label": "ООО МСЦ  \"Наедине\"",
    "Id": 652
  },
  {
    "Latitude": "55.069144",
    "Longitude": "82.927149",
    "Address": "630047, обл. Новосибирская, г. Новосибирск, ул. Залесского, д. 6 ",
    "Label": "ГБУЗ НСО \"Городская клиническая больница №1\" (Горбольница №1)",
    "Id": 653
  },
  {
    "Latitude": "55.015692",
    "Longitude": "82.922577",
    "Address": "обл. Новосибирская, г. Новосибирск, ул. Фабричная, д. 4\/1, офис 6",
    "Label": "ООО \"Новосибирский гастроцентр\"",
    "Id": 654
  },
  {
    "Latitude": "55.001545",
    "Longitude": "83.013872",
    "Address": "обл. Новосибирская, г. Новосибирск, ул. Выборная, д. 89\/2",
    "Label": "ООО \"МЦ\" \"XXI век\" - Новосибирск\"",
    "Id": 655
  },
  {
    "Latitude": "55.126678",
    "Longitude": "82.896804",
    "Address": "обл. Новосибирская, г. Новосибирск, ул. Кубовая, д. 96",
    "Label": "ООО \"МИТРА\"",
    "Id": 656
  },
  {
    "Latitude": "55.069144",
    "Longitude": "82.927149",
    "Address": "630047, обл. Новосибирская, г. Новосибирск, ул. Залесского, д. 6 ",
    "Label": "ГБУЗ НСО \"Новосибирский областной клинический кардиологический диспансер\"",
    "Id": 657
  },
  {
    "Latitude": "54.869559",
    "Longitude": "83.103551",
    "Address": "630117, обл. Новосибирская, г. Новосибирск, ул. Арбузова, д. 6 ",
    "Label": "Научно-исследовательский институт клинической и экспериментальной лимфологии - филиал ФГБНУ \"Федеральный исследовательский центр Институт цитологии и генетики СО РАН\" (НИИКЭЛ - филиал ИЦиГ СО РАН) ",
    "Id": 658
  },
  {
    "Latitude": "54.888667",
    "Longitude": "83.118957",
    "Address": "обл. Новосибирская, г. Новосибирск, ул. Тимакова, д. 2",
    "Label": "\"Институт цитологии и генетики Сибирского отделения Российской академии наук\" филиал НИИКЭЛ\" ФГБУ",
    "Id": 659
  },
  {
    "Latitude": "54.854398",
    "Longitude": "83.048574",
    "Address": "630058, обл. Новосибирская, г. Новосибирск, ул. Балтийская, д. 23 ",
    "Label": "ООО \"МедГид\"",
    "Id": 660
  },
  {
    "Latitude": "55.025374",
    "Longitude": "82.917025",
    "Address": "630099, обл. Новосибирская, г. Новосибирск, ул. Советская, д. 19 ",
    "Label": "ООО \"ЕвроМед\" (ЛОРиЯ)",
    "Id": 661
  },
  {
    "Latitude": "55.107571",
    "Longitude": "82.949418",
    "Address": "обл. Новосибирская, г. Новосибирск, ул. Тюленина, д. 8",
    "Label": "Доверие-мед",
    "Id": 662
  },
  {
    "Latitude": "55.04238",
    "Longitude": "82.915345",
    "Address": "630091, обл. Новосибирская, г. Новосибирск, ул. Гоголя, д. 3",
    "Label": "ООО \"Диагностическо-лечебный центр \"Инфо-Медика\"",
    "Id": 663
  },
  {
    "Latitude": "54.939843",
    "Longitude": "82.893283",
    "Address": "обл. Новосибирская, г. Новосибирск, ул. Петухова, д. 16\/1, офис 22",
    "Label": "ООО \"Санталь 54\"",
    "Id": 664
  },
  {
    "Latitude": "54.990075",
    "Longitude": "82.876852",
    "Address": "630078, обл. Новосибирская, г. Новосибирск, ул. Дружбы, д. 5 ",
    "Label": "ООО Медицинский центр \"Панацея\"",
    "Id": 665
  },
  {
    "Latitude": "54.977971",
    "Longitude": "82.875909",
    "Address": "обл. Новосибирская, г. Новосибирск, ул. Степная, д. 23",
    "Label": "ООО \"Клиника Эксперт Новосибирск\"",
    "Id": 666
  },
  {
    "Latitude": "55.029766",
    "Longitude": "82.913423",
    "Address": "630004, обл. Новосибирская, г. Новосибирск, ул. Ленина, д. 12 ",
    "Label": "ООО Медицинский центр \"Ваш доктор\"",
    "Id": 667
  },
  {
    "Latitude": "54.984006",
    "Longitude": "82.909443",
    "Address": " обл. Новосибирская, г. Новосибирск, ул. Новогодняя, д. 28\/1 ",
    "Label": "ООО Медицинский центр \"Ваш доктор\"",
    "Id": 668
  },
  {
    "Latitude": "54.990344",
    "Longitude": "82.851673",
    "Address": " обл. Новосибирская, г. Новосибирск, ул. Киевская, д. 3 ",
    "Label": "ООО Медицинский центр \"Ваш доктор\"",
    "Id": 669
  },
  {
    "Latitude": "54.976871",
    "Longitude": "82.886033",
    "Address": "обл. Новосибирская, г. Новосибирск, ул. Римского-Корсокова, д. 19",
    "Label": "ООО Медицинский центр \"А\" (Клиника РенессансМед)",
    "Id": 670
  },
  {
    "Latitude": "55.038196",
    "Longitude": "82.974086",
    "Address": "630089, обл. Новосибирская, г. Новосибирск, ул. Бориса Богаткова, д. 217\/1",
    "Label": "ООО \"Главный Пациент\"",
    "Id": 671
  },
  {
    "Latitude": "55.039378",
    "Longitude": "82.955572",
    "Address": "630112, обл. Новосибирская, г. Новосибирск, ул. Фрунзе, д. 232",
    "Label": "ООО \"Европа\"",
    "Id": 672
  },
  {
    "Latitude": "55.031035",
    "Longitude": "82.933455",
    "Address": "обл. Новосибирская, г. Новосибирск, ул. Семьи Шамшиных, д. 26\/1",
    "Label": "ООО \"Здоровье\"",
    "Id": 673
  },
  {
    "Latitude": "55.034131",
    "Longitude": "82.905545",
    "Address": "обл. Новосибирская, г Новосибирск, ул. Вокзальная Магистраль, д. 5,  -",
    "Label": "ООО  \"Сибнейромед\"",
    "Id": 674
  },
  {
    "Latitude": "55.026711",
    "Longitude": "82.935602",
    "Address": "обл. Новосибирская, г. Новосибирск, ул. Семьи Шамшиных, д. 4",
    "Label": "ГБУЗ НСО Городская инфекционная клиническая больница №1 (ГИКБ №1)",
    "Id": 675
  },
  {
    "Latitude": "55.046006",
    "Longitude": "82.933931",
    "Address": "обл. Новосибирская, г. Новосибирск, ул. Ольги Жилиной, д. 90А",
    "Label": "ГБУЗ НСО Городская инфекционная клиническая больница №1 (ГИКБ №1)",
    "Id": 676
  },
  {
    "Latitude": "55.035715",
    "Longitude": "82.913575",
    "Address": "630099, обл. Новосибирская, г. Новосибирск, пр-кт Димитрова, д. 18 ",
    "Label": "ООО \"Эра\"",
    "Id": 677
  },
  {
    "Latitude": "55.024017",
    "Longitude": "82.915884",
    "Address": "обл. Новосибирская, г. Новосибирск, ул. Октябрьская, д. 34",
    "Label": "ООО \"Аэро Хелс Менеджмент\" (Аэролаб)",
    "Id": 678
  },
  {
    "Latitude": "55.042813",
    "Longitude": "82.913216",
    "Address": "обл. Новосибирская, г. Новосибирск, ул. Советская, д. 50",
    "Label": "ООО \"Эрсимед\"",
    "Id": 679
  },
  {
    "Latitude": "55.043386",
    "Longitude": "82.935683",
    "Address": "обл. Новосибирская, г. Новосибирск, ул. Гоголя, д. 38",
    "Label": "ООО \"Эрсимед\"",
    "Id": 680
  },
  {
    "Latitude": "54.993277",
    "Longitude": "82.901978",
    "Address": "обл. Новосибирская, г. Новосибирск, мкр. Горский, д. 51",
    "Label": "ООО \"Клиника семейного здоровья\"",
    "Id": 681
  },
  {
    "Latitude": "54.843056",
    "Longitude": "83.101925",
    "Address": "обл. Новосибирская, г. Новосибирск, пр-кт Академика Коптюга, д. 13",
    "Label": "ООО \"Клиника семейного здоровья\"",
    "Id": 682
  },
  {
    "Latitude": "54.833309",
    "Longitude": "83.109848",
    "Address": "обл. Новосибирская, г. Новосибирск, ул. Воеводского, д. 18",
    "Label": "ООО \"Центр персонализированной медицины\"",
    "Id": 683
  },
  {
    "Latitude": "54.850826",
    "Longitude": "83.090553",
    "Address": "обл. Новосибирская, г. Новосибирск, ул. Пирогова, д. 25",
    "Label": "ООО \"Центр персонализированной медицины\"",
    "Id": 684
  },
  {
    "Latitude": "54.982192",
    "Longitude": "82.885126",
    "Address": "обл. Новосибирская, г. Новосибирск, ул. Титова, д. 7",
    "Label": "ООО \"Центр новых медицинских технологий\" (ЦНМТ)",
    "Id": 685
  },
  {
    "Latitude": "54.852091",
    "Longitude": "83.09146",
    "Address": "обл Новосибирская, г Новосибирск, ул Пирогова, д 25\/4",
    "Label": "ООО \"Центр новых медицинских технологий\" (ЦНМТ)",
    "Id": 686
  },
  {
    "Latitude": "54.843056",
    "Longitude": "83.101925",
    "Address": "обл Новосибирская, г Новосибирск, пр-кт Академика Коптюга, д 13",
    "Label": "ООО \"Центр новых медицинских технологий\" (ЦНМТ)",
    "Id": 687
  },
  {
    "Latitude": "54.997295",
    "Longitude": "82.903541",
    "Address": " обл. Новосибирская, г. Новосибирск, ул. Горский мкр, д. 51 ",
    "Label": "ООО \"Центр новых медицинских технологий\" (ЦНМТ)",
    "Id": 688
  },
  {
    "Latitude": "54.840013",
    "Longitude": "83.103506",
    "Address": "обл. Новосибирская, г Новосибирск, ул. Правды, д. 8",
    "Label": "ООО \"Центр новых медицинских технологий\" (ЦНМТ)",
    "Id": 689
  },
  {
    "Latitude": "55.041018",
    "Longitude": "82.9744",
    "Address": "обл. Новосибирская, г . Новосибирск, ул. Кошурникова, д. 29\/4, корп. 1",
    "Label": "ООО Сеть многопрофильных клиник \"Смитра\"",
    "Id": 690
  },
  {
    "Latitude": "54.990592",
    "Longitude": "82.902185",
    "Address": "обл. Новосибирская, г. Новосибирск, ул. Геодезическая, д. 2\/1",
    "Label": "ООО Сеть многопрофильных клиник \"Смитра\"",
    "Id": 691
  },
  {
    "Latitude": "55.023124",
    "Longitude": "82.924014",
    "Address": "630007, г. Новосибирск, ул. Коммунистическая, д. 48, корп. А",
    "Label": "ООО Сеть многопрофильных клиник \"Смитра\"",
    "Id": 692
  },
  {
    "Latitude": "55.045284",
    "Longitude": "82.910207",
    "Address": "630132, обл. Новосибирская, г. Новосибирск, ул. 1905 года, д. 83",
    "Label": "ФГБУ Новосибирский научно-исследовательский институт патологии кровообращения имени академика Е.Н. Мешалкина Минздрава России (ННИИПК им. акад. Е.Н.МЕШАЛКИНА)",
    "Id": 693
  },
  {
    "Latitude": "55.045284",
    "Longitude": "82.910207",
    "Address": "обл. Новосибирская, г. Новосибирск, ул. 1905 года, д. 83",
    "Label": "ФГБУ Новосибирский научно-исследовательский институт патологии кровообращения имени академика Е.Н. Мешалкина Минздрава России (ННИИПК им. акад. Е.Н.МЕШАЛКИНА)",
    "Id": 694
  },
  {
    "Latitude": "54.867865",
    "Longitude": "83.073413",
    "Address": "630055, обл. Новосибирская, г. Новосибирск, ул. Речкуновская, д. 15",
    "Label": "ФГБУ Новосибирский научно-исследовательский институт патологии кровообращения имени академика Е.Н. Мешалкина Минздрава России (ННИИПК им. акад. Е.Н.МЕШАЛКИНА)",
    "Id": 695
  },
  {
    "Latitude": "55.04907",
    "Longitude": "82.915866",
    "Address": "630005, обл. Новосибирская, г. Новосибирск, ул. Красный проспект, д. 86",
    "Label": "ООО ЛДЦ \"АвисМед\" стом",
    "Id": 696
  },
  {
    "Latitude": "54.981562",
    "Longitude": "82.912093",
    "Address": "обл. Новосибирская, г. Новосибирск, ул. Немировича-Данченко, д. 147",
    "Label": "ООО Клиника \"Медпрактика\"",
    "Id": 697
  },
  {
    "Latitude": "54.981562",
    "Longitude": "82.912093",
    "Address": "обл. Новосибирская, г. Новосибирск, ул. Немировича-Данчаенко, д. 147",
    "Label": "ООО Клиника \"Медпрактика\"",
    "Id": 698
  },
  {
    "Latitude": "55.050705",
    "Longitude": "82.96053",
    "Address": "обл Новосибирская, г Новосибирск, ул Красина, д 68",
    "Label": "ООО Клиника \"Медпрактика\"",
    "Id": 699
  },
  {
    "Latitude": "55.099201",
    "Longitude": "83.04808",
    "Address": "обл. Новосибирская, с. Каменка, ул. Олимпиской славы, д. 1",
    "Label": "ООО Клиника \"Медпрактика\"",
    "Id": 700
  },
  {
    "Latitude": "55.055218",
    "Longitude": "82.915148",
    "Address": "обл. Новосибирская, г Новосибирск, ул. Красный проспект, д. 100",
    "Label": "ООО \"Блеск\" ",
    "Id": 701
  },
  {
    "Latitude": "55.063385",
    "Longitude": "82.912524",
    "Address": "630049, обл. Новосибирская, г. Новосибирск, пр-кт Красный, д. 200, офис 18",
    "Label": "ООО \"ЕвроМедКлиника\"",
    "Id": 702
  },
  {
    "Latitude": "55.035715",
    "Longitude": "82.971095",
    "Address": "630089, обл. Новосибирская, г. Новосибирск, ул. Бориса Богаткова, д. 175 ",
    "Label": "ФГБНУ Научно-исследовательский институт терапии и профилактической медицины - филиал ФГБНУ \"Федеральный исследовательский центр Институт цитологии и генетики Сибирского отделения Россиской академии наук\" (НИИТПМ - филиал ИЦиГ СО РАН)",
    "Id": 703
  },
  {
    "Latitude": "54.99179",
    "Longitude": "82.893633",
    "Address": "630078, обл. Новосибирская, г. Новосибирск, ул. Пермитина, д. 24, ст. метро Студенческая",
    "Label": "ООО \"Клиника Крови\"",
    "Id": 704
  },
  {
    "Latitude": "55.041931",
    "Longitude": "82.906614",
    "Address": "обл. Новосибирская, г Новосибирск, ул. Нарымская, д. 19",
    "Label": "ООО \"Сибирский центр профилактики и лечения близорукости \"Глазка\"",
    "Id": 705
  },
  {
    "Latitude": "55.018334",
    "Longitude": "82.93942",
    "Address": "обл. Новосибирская, г Новосибирск, ул. Кирова, д. 46\/1",
    "Label": "ООО Международный медицинский центр Медикал Он Груп-Новосибирск",
    "Id": 706
  },
  {
    "Latitude": "54.887942",
    "Longitude": "83.120278",
    "Address": "630117, обл. Новосибирская, г. Новосибирск, ул. Тимакова, д. 4 ",
    "Label": "ФГБУ \"Научно-исследовательский институт нейронаук и медицины\"",
    "Id": 707
  },
  {
    "Latitude": "55.031825",
    "Longitude": "82.886976",
    "Address": " обл. Новосибирская, г. Новосибирск, ул. Владимировский спуск, д. 2, а, ",
    "Label": "НУЗ ДКБ на ст. Новосибирск-Гл. ОАО РЖД (Медклуб)",
    "Id": 708
  },
  {
    "Latitude": "55.020905",
    "Longitude": "82.946813",
    "Address": "обл. Новосибирская, г. Новосибирск, ул. Сакко и Ванцетти, д. 77",
    "Label": "ООО \"Медпарк новые технологии\"",
    "Id": 709
  },
  {
    "Latitude": "55.045367",
    "Longitude": "82.901772",
    "Address": "630132, обл. Новосибирская, г. Новосибирск, ул. Железнодорожная, д. 12\/1 ",
    "Label": "ООО Центр семейной медицины \"Алмита\"",
    "Id": 710
  },
  {
    "Latitude": "55.0393",
    "Longitude": "82.930787",
    "Address": "обл. Новосибирская, г. Новосибирск, ул. Семьи Шамшиных, д. 58",
    "Label": "ООО \"Эксимер\"",
    "Id": 711
  },
  {
    "Latitude": "54.840013",
    "Longitude": "83.103506",
    "Address": "обл. Новосибирская, г. Новосибирск, ул. Правды, д. 8",
    "Label": "ООО \"Центр семейной медицины\"",
    "Id": 712
  },
  {
    "Latitude": "55.034771",
    "Longitude": "82.911689",
    "Address": "630132, обл. Новосибирская, г. Новосибирск, пр-кт Димитрова, д. 7 ",
    "Label": "АО Медицинский центр \"АВИЦЕННА\"",
    "Id": 713
  },
  {
    "Latitude": "55.023103",
    "Longitude": "82.914842",
    "Address": "обл. Новосибирская, г. Новосибирск, ул. Коммунистическая,, д. 17",
    "Label": "АО Медицинский центр \"АВИЦЕННА\"",
    "Id": 714
  },
  {
    "Latitude": "55.019186",
    "Longitude": "82.923888",
    "Address": "обл. Новосибирская, г. Новосибирск, пр-кт Красный, д. 14\/1",
    "Label": "АО Медицинский центр \"АВИЦЕННА\" Стоматология",
    "Id": 715
  },
  {
    "Latitude": "55.019186",
    "Longitude": "82.923888",
    "Address": "обл. Новосибирская, г. Новосибирск, пр-кт Красный , д. 14\/1",
    "Label": "АО Медицинский центр \"АВИЦЕННА\"",
    "Id": 716
  },
  {
    "Latitude": "55.023263",
    "Longitude": "82.914752",
    "Address": "630091, обл. Новосибирская, г. Новосибирск, ул. Урицкого, д. 2 ",
    "Label": "АО Медицинский центр \"АВИЦЕННА\"",
    "Id": 717
  },
  {
    "Latitude": "55.039352",
    "Longitude": "82.886779",
    "Address": "обл. Новосибирская, г . Новосибирск, ул. Владимировская, д. 25",
    "Label": "ООО \"Дуэт Клиник\"",
    "Id": 718
  },
  {
    "Latitude": "55.025803",
    "Longitude": "82.92997",
    "Address": "обл. Новосибирская, г. Новосибирск, ул. Каменская, д. 16",
    "Label": "ООО клиника \"Здоровье\"",
    "Id": 719
  },
  {
    "Latitude": "55.025803",
    "Longitude": "82.92997",
    "Address": "630099, обл. Новосибирская, г. Новосибирск, ул. Каменская, д. 16 ",
    "Label": "ООО клиника \"Здоровье\"",
    "Id": 720
  },
  {
    "Latitude": "55.038867",
    "Longitude": "82.914932",
    "Address": "обл Новосибирская, г Новосибирск, ул Ермака, д 4",
    "Label": "ООО \"Медицина\" (dune ego)",
    "Id": 721
  },
  {
    "Latitude": "55.023934",
    "Longitude": "82.922621",
    "Address": "630007, обл. Новосибирская, г. Новосибирск, пр-кт Красный, д. 24 ",
    "Label": "ООО \"Общая врачебная практика\"",
    "Id": 722
  },
  {
    "Latitude": "55.043479",
    "Longitude": "82.949113",
    "Address": "обл. Новосибирская, г. Новосибирск, пр-кт Дзержинского, д. 1\/1, офис 12",
    "Label": "ООО \"Клиника профессора Пасман\"",
    "Id": 723
  },
  {
    "Latitude": "55.05892",
    "Longitude": "82.914456",
    "Address": "обл. Новосибирская, г. Новосибирск, ул. Красный проспект, д. 186\/1",
    "Label": "ООО \"Клиника профессора Пасман\"",
    "Id": 724
  },
  {
    "Latitude": "54.992028",
    "Longitude": "82.902382",
    "Address": "обл. Новосибирская, г. Новосибирск, ул. Блюхера, д. 71\/1",
    "Label": "ООО \"Клиника профессора Пасман\"",
    "Id": 725
  },
  {
    "Latitude": "55.045367",
    "Longitude": "82.901772",
    "Address": "обл. Новосибирская, г. Новосибирск, ул. Железнодорожная, д. 12\/1",
    "Label": "НФ ФГАУ \"Межотраслевой научно-технический комплекс \"Микрохирургия глаза\" им.акад. С.Н.Федорова\" Минздрава России (МНТК)",
    "Id": 726
  },
  {
    "Latitude": "55.015335",
    "Longitude": "82.956713",
    "Address": "630008, обл. Новосибирская, г. Новосибирск, ул. Толстого, д. 149 ",
    "Label": "НФ ФГАУ \"Межотраслевой научно-технический комплекс \"Микрохирургия глаза\" им.акад. С.Н.Федорова\" Минздрава России (МНТК)",
    "Id": 727
  },
  {
    "Latitude": "55.074865",
    "Longitude": "82.945888",
    "Address": "630075, обл. Новосибирская, г. Новосибирск, ул. Александра Невского, д. 3 ",
    "Label": "НФ ФГАУ \"Межотраслевой научно-технический комплекс \"Микрохирургия глаза\" им.акад. С.Н.Федорова\" Минздрава России (МНТК)",
    "Id": 728
  },
  {
    "Latitude": "55.045367",
    "Longitude": "82.901772",
    "Address": "630132, обл. Новосибирская, г. Новосибирск, ул. Железнодорожная, д. 12\/1 ",
    "Label": "НФ ФГАУ \"Межотраслевой научно-технический комплекс \"Микрохирургия глаза\" им.акад. С.Н.Федорова\" Минздрава России (МНТК)",
    "Id": 729
  },
  {
    "Latitude": "55.015335",
    "Longitude": "82.956713",
    "Address": "обл. Новосибирская, г. Новосибирск, ул. Толстого, д. 149",
    "Label": "НФ ФГАУ \"Межотраслевой научно-технический комплекс \"Микрохирургия глаза\" им.акад. С.Н.Федорова\" Минздрава России (МНТК)",
    "Id": 730
  },
  {
    "Latitude": "54.982265",
    "Longitude": "82.815938",
    "Address": "630071, обл. Новосибирская, г. Новосибирск, ул. Колхидская, д. 10 ",
    "Label": "НФ ФГАУ \"Межотраслевой научно-технический комплекс \"Микрохирургия глаза\" им.акад. С.Н.Федорова\" Минздрава России (МНТК)",
    "Id": 731
  },
  {
    "Latitude": "55.996002",
    "Longitude": "92.951854",
    "Address": "край Красноярский, г Красноярск, ул. Академика Павлова, д. 44, офис 44",
    "Label": "ООО \"Стоматология Улыбка Тари\"",
    "Id": 732
  },
  {
    "Latitude": "53.828044",
    "Longitude": "86.507861",
    "Address": "край Красноярский, г. , ул. Молокова, д. 23, стр. 56",
    "Label": "ООО \"Элит-Нейрон\"",
    "Id": 733
  },
  {
    "Latitude": "56.061384",
    "Longitude": "92.925964",
    "Address": "край Красноярский, г. Красноярск, ул. Урванцева, д. 14",
    "Label": "ООО \"МЕД-ВИЗИТ\"",
    "Id": 734
  },
  {
    "Latitude": "55.999485",
    "Longitude": "92.970529",
    "Address": "660003, край Красноярский, г. Красноярск, ул. Академика Павлова, д. 1 ",
    "Label": "ООО \"Клиника Эксперт Сибирь\"",
    "Id": 735
  },
  {
    "Latitude": "56.010941",
    "Longitude": "92.845026",
    "Address": "660021, край Красноярский, г. Красноярск, пр-кт Мира, д. 122 ",
    "Label": "ООО ЦЕНТР КОРРЕКЦИИ ЗРЕНИЯ «ОКУЛЮС»",
    "Id": 736
  },
  {
    "Latitude": "56.030457",
    "Longitude": "92.918248",
    "Address": "660022, г. Красноярск, ул. Никитина, дом 18\/8",
    "Label": "ООО \"КРАСМЕД\"",
    "Id": 737
  },
  {
    "Latitude": "56.032841",
    "Longitude": "92.907486",
    "Address": "660022, край Красноярский, г. Красноярск, ул. Аэровокзальная, д. 17, каб. 1-02",
    "Label": "ООО\"ОМЕГА\"(Мрт Лидер)",
    "Id": 738
  },
  {
    "Latitude": "56.014529",
    "Longitude": "92.963163",
    "Address": "660037, край Красноярский, г. Красноярск, ул. Коломенская, д. 26 ",
    "Label": "ООО \"ЛДЦ МИБС Красноярск\"",
    "Id": 739
  },
  {
    "Latitude": "56.01308",
    "Longitude": "92.878326",
    "Address": "660049, край Красноярский, г. Красноярск, пр-кт Мира, д. 52А ",
    "Label": "ООО \"4 сезона\"",
    "Id": 740
  },
  {
    "Latitude": "55.991128",
    "Longitude": "92.970386",
    "Address": "660050, край Красноярский, г. Красноярск, ул. Щербакова, д. 49 ",
    "Label": "ООО \"ЕвроМед\"",
    "Id": 741
  },
  {
    "Latitude": "56.024139",
    "Longitude": "92.776565",
    "Address": "660062, край Красноярский, г. Красноярск, ул. Крупской, офис 67 ",
    "Label": "ООО \"Центр современной флебологии и профилактической медицины\"",
    "Id": 742
  },
  {
    "Latitude": "56.022202",
    "Longitude": "92.836654",
    "Address": "660075, край Красноярский, г. Красноярск, ул. Маерчака, д. 18 ",
    "Label": "ООО \"Клиника лазерной микрохирургии глаза\"",
    "Id": 743
  },
  {
    "Latitude": "56.039475",
    "Longitude": "92.912947",
    "Address": "660077, край Красноярский, г. Красноярск, ул. Весны, д. 15 ",
    "Label": "ООО \"Нефертити и Красноярский краевой центр врачебной косметологии\"",
    "Id": 744
  },
  {
    "Latitude": "55.958432",
    "Longitude": "94.70665",
    "Address": "край Красноярский, г Заозерный, ул Мира, д 54, к 27",
    "Label": "ФГУЗ \"Центр Гигиены и Эпидемиологии в Красноярском крае\"",
    "Id": 745
  },
  {
    "Latitude": "55.997416",
    "Longitude": "92.905653",
    "Address": "г. Красноярск, ул. Красноярский рабочий, д. 160, корп. 20",
    "Label": "ООО \"Центр лабораторных технологий АБВ\"",
    "Id": 746
  },
  {
    "Latitude": "56.013779",
    "Longitude": "92.879898",
    "Address": "г. Красноярск, ул. Ленина, д. 35, вл. 2",
    "Label": "ООО \"Диалог Медикал Сибирь\"",
    "Id": 747
  },
  {
    "Latitude": "55.981228",
    "Longitude": "92.722514",
    "Address": "г. Красноярск, ул. Лесная, д. 103А, офис 2",
    "Label": "ООО \"Метелица\"",
    "Id": 748
  },
  {
    "Latitude": "56.024667",
    "Longitude": "92.910181",
    "Address": "г. Красноярск, ул. Партизана Железняка, д. 3, корп. Г",
    "Label": "ООО \"Томомед\"",
    "Id": 749
  },
  {
    "Latitude": "56.021155",
    "Longitude": "92.797083",
    "Address": "г. Красноярск, ул. Телевизорная, д. 1, стр. 5",
    "Label": "ООО \"Смайл\"",
    "Id": 750
  },
  {
    "Latitude": "56.0405",
    "Longitude": "92.87255",
    "Address": "г. Красноярск, ул. Чернышевского, д. 116",
    "Label": "Гемотест",
    "Id": 751
  },
  {
    "Latitude": "58.379377",
    "Longitude": "97.395262",
    "Address": "край Красноярск, с. Богучаны, ул. Ленина, д. 226",
    "Label": "КГБУЗ \"Богучанская РБ\"",
    "Id": 752
  },
  {
    "Latitude": "56.006271",
    "Longitude": "92.811007",
    "Address": "660100, край Красноярский, г. Красноярск, ул. Сопочная, д. 38 ",
    "Label": "ФГУЗ \"Центр Гигиены и Эпидемиологии в Красноярском крае\"",
    "Id": 753
  },
  {
    "Latitude": "56.05689",
    "Longitude": "92.962157",
    "Address": "660112, край Красноярский, г. Красноярск, пр-кт Металлургов, д. 8 ",
    "Label": "ООО \"КрасНЕО\"",
    "Id": 754
  },
  {
    "Latitude": "56.010569",
    "Longitude": "92.852572",
    "Address": "г. Красноярск",
    "Label": "ООО \"Евромед\"",
    "Id": 755
  },
  {
    "Latitude": "55.997799",
    "Longitude": "92.934067",
    "Address": "г. Красноярск, пер. Якорный, д. 10",
    "Label": "Гемотест",
    "Id": 756
  },
  {
    "Latitude": "56.007005",
    "Longitude": "92.950991",
    "Address": "г. Красноярск, пр-кт Имени газеты Красноярский рабочий, д. 65",
    "Label": "Гемотест",
    "Id": 757
  },
  {
    "Latitude": "56.010765",
    "Longitude": "92.84216",
    "Address": "г. Красноярск, пр-кт Мира, д. 128",
    "Label": "Гемотест",
    "Id": 758
  },
  {
    "Latitude": "56.009859",
    "Longitude": "92.865561",
    "Address": "г. Краснояррск, ул. Карла Маркса, д. 129",
    "Label": "Гемотест",
    "Id": 759
  },
  {
    "Latitude": "56.113512",
    "Longitude": "92.91743",
    "Address": "г. Красноярск, ул. 60 лет образования, д. 26",
    "Label": "Гемотест",
    "Id": 760
  },
  {
    "Latitude": "56.051411",
    "Longitude": "92.914681",
    "Address": "г. Красноярск, ул. Алексеева, д. 27",
    "Label": "Гемотест",
    "Id": 761
  },
  {
    "Latitude": "56.035476",
    "Longitude": "92.909929",
    "Address": "г. Красноярск, ул. Весны, д. 2а",
    "Label": "МДЦ \"Формула здоровья\" (Бархатный сезон)",
    "Id": 762
  },
  {
    "Latitude": "56.062997",
    "Longitude": "92.907468",
    "Address": "г. Красноярск, ул. Водопьянова, д. 2",
    "Label": "Гемотест",
    "Id": 763
  },
  {
    "Latitude": "56.010926",
    "Longitude": "92.883761",
    "Address": "г. Красноярск, ул. Карла Маркса, д. 45",
    "Label": "КГАУЗ Краевой Центр СПИД",
    "Id": 764
  },
  {
    "Latitude": "51.716012",
    "Longitude": "36.190715",
    "Address": "ул. курчатова, д. 1а, корп. ",
    "Label": "ООО \"Клиника вертебрологии\"(Доктор Савяк)",
    "Id": 765
  },
  {
    "Latitude": "58.191448",
    "Longitude": "92.529412",
    "Address": "край Красноярский, г. Лесосибирск, ул. Белинского, д. 5Б, стр. 105",
    "Label": "ООО \"Лабораторная диагностика\"",
    "Id": 766
  },
  {
    "Latitude": "55.066649",
    "Longitude": "82.911572",
    "Address": "обл. , г. Новосибирск, пр-кт Красный,  218\/2",
    "Label": "ООО\"ИНВИТРО-Сибирь\"",
    "Id": 767
  },
  {
    "Latitude": "56.020758",
    "Longitude": "92.765902",
    "Address": "край Красноярский, г. Красноярск, ул. Вильского, д. 11",
    "Label": "ООО \"ЛДЦ МИБС Красноярск\"",
    "Id": 768
  },
  {
    "Latitude": "56.010191",
    "Longitude": "92.881848",
    "Address": "660049, край Красноярский, г. Красноярск, ул. Парижской Коммуны, д. 14 ",
    "Label": "ООО \"Профессиональная стоматология\" (НОРМОДЕНТ-СИБИРЬ)",
    "Id": 769
  },
  {
    "Latitude": "56.017855",
    "Longitude": "92.813594",
    "Address": "660028, край Красноярский, г. Красноярск, ул. Ладо Кецховели, д. 40 ",
    "Label": "ООО\"Стомалюкс\"",
    "Id": 770
  },
  {
    "Latitude": "56.038665",
    "Longitude": "92.908456",
    "Address": "край Красноярский, г Красноярск, ул. Весны, д. 7, корп. д",
    "Label": "ООО \"ВОКА\"",
    "Id": 771
  },
  {
    "Latitude": "56.034948",
    "Longitude": "92.901287",
    "Address": "край Красноярский, г Красноярск, ул. Взлетная, д. 28",
    "Label": "ООО \"ВОКА\"",
    "Id": 772
  },
  {
    "Latitude": "56.012456",
    "Longitude": "92.960019",
    "Address": "край Красноярский, г. Красноярск, ул. Мичурина, д. 2а",
    "Label": "ГБУЗ \"Красноярская городская стоматологическая поликлиника №1\"",
    "Id": 773
  },
  {
    "Latitude": "56.018766",
    "Longitude": "92.896383",
    "Address": "660032, край Красноярский, г. Красноярск, ул. Белинского, д. 1 ",
    "Label": "ООО \"Клиника Березина\"",
    "Id": 774
  },
  {
    "Latitude": "56.119017",
    "Longitude": "93.322561",
    "Address": "край Красноярский, г. Сосновоборск, ул. Юности, д. 41, стр. 102",
    "Label": "ООО \"Дентани+\"",
    "Id": 775
  },
  {
    "Latitude": "53.82738",
    "Longitude": "91.322876",
    "Address": "респ. Хакасия, г Черногорск, ул. Пушкина, д. 30",
    "Label": "ООО \"Центр Дент\"",
    "Id": 776
  },
  {
    "Latitude": "56.009788",
    "Longitude": "92.83942",
    "Address": "660021, край Красноярский, г. Красноярск, пр-кт Мира, д. 115А ",
    "Label": "ООО \"Краевой Центр Дентальной Имплантации\"",
    "Id": 777
  },
  {
    "Latitude": "56.023772",
    "Longitude": "92.83836",
    "Address": "660075, край Красноярский, г. Красноярск, ул. Железнодорожников, д. 26 ",
    "Label": "КГАУЗ \"Красноярская городская стоматологическая поликлиника №2\"",
    "Id": 778
  },
  {
    "Latitude": "56.011298",
    "Longitude": "92.836528",
    "Address": "край Красноярский, г. Красноярск,  Профсоюзов, д. 27",
    "Label": "ООО \"Дентана\"",
    "Id": 779
  },
  {
    "Latitude": "56.049123",
    "Longitude": "92.919074",
    "Address": "г. Красноярск, ул. Молокова, д. 16",
    "Label": "ООО \"Альберг\"",
    "Id": 780
  },
  {
    "Latitude": "56.000447",
    "Longitude": "92.784336",
    "Address": "660074, край Красноярский, г. Красноярск, ул. Ленинградская, д. 48 ",
    "Label": "ООО \"Медицинский ЛПЦ по проблеме СД\"",
    "Id": 781
  },
  {
    "Latitude": "56.060413",
    "Longitude": "92.903551",
    "Address": "660049, край Красноярский, г. Красноярск, пер. Светлогорский, д. 10 ",
    "Label": "ООО \"Первая Клиника\"",
    "Id": 782
  },
  {
    "Latitude": "56.05982",
    "Longitude": "92.914484",
    "Address": "край Красноярский, г . Красноярск, ул. 9 Мая, д. 40, пом. 112, ком.8",
    "Label": "ООО \"ДемократДентал\"",
    "Id": 783
  },
  {
    "Latitude": "56.038258",
    "Longitude": "92.920152",
    "Address": "660077, край Красноярский, г. Красноярск, ул. 78, Добровольческой, бригады, д. 2 ",
    "Label": "ООО\"НеоСтом\"",
    "Id": 784
  },
  {
    "Latitude": "56.067374",
    "Longitude": "92.937561",
    "Address": "660127, край Красноярский, г. Красноярск, ул. Шумяцкого, д. 4, офис 123",
    "Label": "ООО \"Эскулап\"",
    "Id": 785
  },
  {
    "Latitude": "56.008445",
    "Longitude": "92.958977",
    "Address": "660037, край Красноярский, г. Красноярск, пр-кт Красноярский рабочий, д. 55А ",
    "Label": "ООО \"Стоматологическая клиника \"Супер-Дент\"",
    "Id": 786
  },
  {
    "Latitude": "55.535819",
    "Longitude": "89.180735",
    "Address": "край Красноярский, г. Шарыпово, мкр. 3, д. 16, стр. 138",
    "Label": "ООО \"АВК стом\"",
    "Id": 787
  },
  {
    "Latitude": "56.034948",
    "Longitude": "92.901287",
    "Address": "край Красноярский, г Красноярск, ул. Взлетная, д. 28, корп. ",
    "Label": "ООО \"Дента\" Красноярск",
    "Id": 788
  },
  {
    "Latitude": "56.007081",
    "Longitude": "92.948323",
    "Address": "660059, край Красноярский, г. Красноярск, пр-кт им. газеты, красноярский рабочий, д. 90 ",
    "Label": "ООО \"Новая Стоматология\"",
    "Id": 789
  },
  {
    "Latitude": "56.048379",
    "Longitude": "92.911115",
    "Address": "660077, г. Красноярск, ул. Авиаторов, д. 41, корп. 231",
    "Label": "ООО ЦИиС \"СмайлДент\"",
    "Id": 790
  },
  {
    "Latitude": "56.013341",
    "Longitude": "92.822559",
    "Address": "660001, край Красноярский, г. Красноярск, ул. Копылова, д. 42 оф, 37, ",
    "Label": "ООО \"Классик-Денталь\"",
    "Id": 791
  },
  {
    "Latitude": "56.019807",
    "Longitude": "92.760431",
    "Address": "край Красноярский, г. Красноярск, ул. Лесопарковая, д. 27",
    "Label": "ООО \"Классик-Денталь\"",
    "Id": 792
  },
  {
    "Latitude": "56.04579",
    "Longitude": "92.945484",
    "Address": "660005, край Красноярский, г. Красноярск, пр-кт Металлургов, д. 36 ",
    "Label": "ЗАО \"Атлас\"",
    "Id": 793
  },
  {
    "Latitude": "56.039475",
    "Longitude": "92.912947",
    "Address": "660077, край Красноярский, г. Красноярск, ул. Весны, д. 15 ",
    "Label": "ООО \"Петра\"",
    "Id": 794
  },
  {
    "Latitude": "55.988283",
    "Longitude": "92.885666",
    "Address": "660012, край Красноярский, г. Красноярск, ул. Александра, матросова, д. 10 ",
    "Label": "ОРИОН-ДЕНТА",
    "Id": 795
  },
  {
    "Latitude": "56.036688",
    "Longitude": "92.865732",
    "Address": "край Красноярский, г. Красноярск, ул. Дмитрия Мартынова, д. 43, офис 195",
    "Label": "ООО ВИОЛА",
    "Id": 796
  },
  {
    "Latitude": "56.015626",
    "Longitude": "92.795726",
    "Address": "край Красноярский, г Красноярск, ул. Белорусская, д. 7, стр. 42",
    "Label": "ООО\"Корона\"",
    "Id": 797
  },
  {
    "Latitude": "55.986677",
    "Longitude": "92.888226",
    "Address": "г. Красноярск, ул. Матросова, д. 11",
    "Label": "\"САН-ДЕНТ\"",
    "Id": 798
  },
  {
    "Latitude": "56.064545",
    "Longitude": "92.921257",
    "Address": "660125, край Красноярский, г. Красноярск, ул. 9, Мая, д. 28 ",
    "Label": "\"САН-ДЕНТ\"",
    "Id": 799
  },
  {
    "Latitude": "56.001141",
    "Longitude": "92.920951",
    "Address": "г. Красноярск, ул. Красноярский рабочий, д. 150, стр. 46",
    "Label": "ООО \"Дент-Студия\"",
    "Id": 800
  },
  {
    "Latitude": "55.983459",
    "Longitude": "92.846275",
    "Address": "г. Красноярск, ул. Судостроительная, д. 66, офис 251",
    "Label": "ООО \"Хоумдент\"",
    "Id": 801
  },
  {
    "Latitude": "55.990363",
    "Longitude": "92.886133",
    "Address": "край Красноярский, г. Красноярск, ул. Александра Матросова, д. 4, стр. 151",
    "Label": "ООО \"Стоматологическая клиника 32 Дент\"",
    "Id": 802
  },
  {
    "Latitude": "56.01391",
    "Longitude": "92.884031",
    "Address": "край Красноярский, г. Красноярск, ул. Ленина, д. 21",
    "Label": "ООО \"Семейная стоматологическая клиника 32 Дент\"",
    "Id": 803
  },
  {
    "Latitude": "56.025955",
    "Longitude": "92.779054",
    "Address": "край Красноярский, г. Красноярск, ул. Крупской, д. 34Г",
    "Label": "ОДУС",
    "Id": 804
  },
  {
    "Latitude": "55.988177",
    "Longitude": "92.855222",
    "Address": "660012, край Красноярский, г. Красноярск, ул. Карамзина, д. 18, офис 455",
    "Label": "ООО \"СК\"Кристалл-Дент плюс\"",
    "Id": 805
  },
  {
    "Latitude": "56.01238",
    "Longitude": "92.883546",
    "Address": "660049, край Красноярский, г. Красноярск, пр-кт Мира, д. 25 ",
    "Label": "ООО \"Практик-2000\"",
    "Id": 806
  },
  {
    "Latitude": "56.060735",
    "Longitude": "92.949168",
    "Address": "г . Красноярск, ул. Воронова, д. 18, корп. в",
    "Label": "ФГБОУ ВО \"Красноярский государственный медицинский университет имени профессора В.Ф. Войно-Ясенецкого\" Минздрав РФ.",
    "Id": 807
  },
  {
    "Latitude": "56.056272",
    "Longitude": "92.914996",
    "Address": "660098, край Красноярский, г. Красноярск, ул. Водопьянова, д. 19 ",
    "Label": "ООО\"Стоматологическая клиника 32+\"",
    "Id": 808
  },
  {
    "Latitude": "56.012385",
    "Longitude": "92.970646",
    "Address": "ул. Красноярский рабочий, д. 62",
    "Label": "ООО \"Спутник\" (Зубоff)",
    "Id": 809
  },
  {
    "Latitude": "56.010569",
    "Longitude": "92.852572",
    "Address": "край Красноярский, г. Красноярск, ул. 26 Бакинских комиссаров, д. 21а, офис 9, 10, 18",
    "Label": "ООО \"ИнтерСтомРус\"",
    "Id": 810
  },
  {
    "Latitude": "55.997014",
    "Longitude": "92.929566",
    "Address": "край Красноярский, г. Красноярск, ул. Академика Вавилова, д. 27А, стр. 170",
    "Label": "ООО \"Стоматологическая клиника \"Дентивита\"",
    "Id": 811
  },
  {
    "Latitude": "56.033354",
    "Longitude": "92.877653",
    "Address": "край Красноярский, г. Красноярск, ул. Мужества, д. 121, каб. 4-12",
    "Label": "ООО \"Сезон\"",
    "Id": 812
  },
  {
    "Latitude": "55.982472",
    "Longitude": "92.833788",
    "Address": "край Красноярский, г. Красноярск, ул. Судостроительная, д. 37, корп. А",
    "Label": "ООО \"Сибирская улыбка\"",
    "Id": 813
  },
  {
    "Latitude": "56.000547",
    "Longitude": "92.783096",
    "Address": "г. Красноярск, ул. Академика Киренского, д. 9, корп. А",
    "Label": "ООО \"Краевой Центр Протезирования\"",
    "Id": 814
  },
  {
    "Latitude": "56.036653",
    "Longitude": "92.910585",
    "Address": "край Красноярский, г Красноярск, ул Весны, д 6",
    "Label": "ООО \"ТРИСПА\"",
    "Id": 815
  },
  {
    "Latitude": "56.014011",
    "Longitude": "92.851197",
    "Address": "660017, край Красноярский, г. Красноярск, ул. Красной Армии , д. 18 ",
    "Label": "ООО \"МедиДентЭлит\"",
    "Id": 816
  },
  {
    "Latitude": "56.0062",
    "Longitude": "92.843112",
    "Address": "660021, край Красноярский, г. Красноярск, ул. Бограда, д. 101 ",
    "Label": "ООО\"Апекс\"",
    "Id": 817
  },
  {
    "Latitude": "56.011736",
    "Longitude": "92.850667",
    "Address": "край Красноярский, г. Красноярск, ул. Ленина, д. 127, офис 66",
    "Label": "ООО \"ИрМа Дент\"",
    "Id": 818
  },
  {
    "Latitude": "56.061916",
    "Longitude": "92.909228",
    "Address": "г. Красноярск, ул. Водопьянова, д. 6",
    "Label": "ООО \"Сибирская стоматология\"",
    "Id": 819
  },
  {
    "Latitude": "56.063801",
    "Longitude": "92.909633",
    "Address": "660125, край Красноярский, г. Красноярск, ул. Светлогорская, д. 35 ",
    "Label": "ООО \"Сибирская стоматология\"",
    "Id": 820
  },
  {
    "Latitude": "55.98648",
    "Longitude": "92.93775",
    "Address": "г. Красноярск, ул. Щорса, д. 85",
    "Label": "ООО\"Нью-Дент\"",
    "Id": 821
  },
  {
    "Latitude": "56.016642",
    "Longitude": "92.985855",
    "Address": "660014, край Красноярский, г. Красноярск, пр-кт им. газеты, красноярский рабочий, д. 42 ",
    "Label": "ООО\"Нью-Дент\"",
    "Id": 822
  },
  {
    "Latitude": "56.019088",
    "Longitude": "92.892664",
    "Address": "г. Красноярск, ул. Андрея Дубенского, д. 4А, стр. ",
    "Label": "\"СИМАТИС\"",
    "Id": 823
  },
  {
    "Latitude": "56.108949",
    "Longitude": "94.621822",
    "Address": "край Красноярский, г. Красноярск, ул. Мира, д. 105, стр. д",
    "Label": "ООО \"Доктор РоС\"",
    "Id": 824
  },
  {
    "Latitude": "56.009225",
    "Longitude": "92.865939",
    "Address": "край Красноярский, г. Красноярск, ул. Урицкого, д. 98, стр. 58",
    "Label": "ООО \"Флагман\"",
    "Id": 825
  },
  {
    "Latitude": "56.010211",
    "Longitude": "92.887166",
    "Address": "660049, край Красноярский, г. Красноярск, ул. Урицкого, д. 24 ",
    "Label": "МУЗ Городская стоматологическая поликлиника № 4",
    "Id": 826
  },
  {
    "Latitude": "56.047379",
    "Longitude": "92.901728",
    "Address": "край Красноярский, г. Красноярск, ул. 78 Добровольческой бригады, д. 23, корп. 560",
    "Label": "ООО \"Стоматологическая клиника \"Платина\"",
    "Id": 827
  },
  {
    "Latitude": "44.931949",
    "Longitude": "34.09756",
    "Address": "ул. Батурина, д. 30, стр. 92",
    "Label": "ООО \"СК \"Кристалл-Дент\"",
    "Id": 828
  },
  {
    "Latitude": "56.014172",
    "Longitude": "92.862929",
    "Address": "г. Красноярск, ул. Кирова, д. 37",
    "Label": "КЭС ООО \"ЕнисейДент\"",
    "Id": 829
  },
  {
    "Latitude": "56.012778",
    "Longitude": "92.800451",
    "Address": "660100, край Красноярский, г. Красноярск, ул. Киренского, д. 67 ",
    "Label": "ООО \"КрасДент\" (Адамант)",
    "Id": 830
  },
  {
    "Latitude": "56.021266",
    "Longitude": "92.822837",
    "Address": "край Красноярский, г. Красноярск, ул. Толстого, д. 21, стр. 302",
    "Label": "ООО \"Эстет\" (Дантес)",
    "Id": 831
  },
  {
    "Latitude": "56.016567",
    "Longitude": "92.786941",
    "Address": "660041, край Красноярский, г. Красноярск, ул. Курчатова, д. 1Г ",
    "Label": "ООО НИ ЛДЦ \"Премьер-Дентал\"",
    "Id": 832
  },
  {
    "Latitude": "56.030447",
    "Longitude": "92.774122",
    "Address": "660113, край Красноярский, г. Красноярск, ул. Е. Д. стасовой, д. 1 ",
    "Label": "ООО \"ВАЙТЕС\"",
    "Id": 833
  },
  {
    "Latitude": "55.996002",
    "Longitude": "92.951854",
    "Address": "край Красноярский, г. Красноярск, ул. Академика Павлова, д. 44, стр. 88",
    "Label": "ООО \"Стоматология Улыбка Тари\"",
    "Id": 834
  },
  {
    "Latitude": "56.057046",
    "Longitude": "92.904809",
    "Address": "660125, край Красноярский, г. Красноярск, ул. 9, Мая, д. 58Б ",
    "Label": "ООО Стоматологическая клиника \"ЭлитДент\"",
    "Id": 835
  },
  {
    "Latitude": "56.024204",
    "Longitude": "92.818409",
    "Address": "край Красноярский, г. Красноярск, ул. Свободный, д. 28А, офис 99",
    "Label": "ООО \"Юпитер\" (Зубоff)",
    "Id": 836
  },
  {
    "Latitude": "55.996389",
    "Longitude": "92.896931",
    "Address": "660093, край Красноярский, г. Красноярск, ул. Капитанская, д. 6 оф, 231, ",
    "Label": "ООО \"Стоматологическая клиника \"Альтернатива\"",
    "Id": 837
  },
  {
    "Latitude": "55.998197",
    "Longitude": "92.900191",
    "Address": "г. Красноярск, ул. Капитанская, д. 14",
    "Label": "ООО \"Бьюти-Дент\"",
    "Id": 838
  },
  {
    "Latitude": "56.052778",
    "Longitude": "92.892906",
    "Address": "г. Красноярск, ул. Ломако, д. 14",
    "Label": "ООО \"Бьюти-Дент\"",
    "Id": 839
  },
  {
    "Latitude": "56.051411",
    "Longitude": "92.914681",
    "Address": "край Красноярский, г. Красноярск, ул. Алексеева, д. 27",
    "Label": "ООО \"Бьюти-Дент\"",
    "Id": 840
  },
  {
    "Latitude": "56.039293",
    "Longitude": "92.9025",
    "Address": "660135, край Красноярский, г. Красноярск, ул. Молокова, д. 17 ",
    "Label": "ООО Центр стоматологических услуг \"Стомус\"",
    "Id": 841
  },
  {
    "Latitude": "55.996802",
    "Longitude": "92.902671",
    "Address": "660064, край Красноярский, г. Красноярск, ул. Парусная, д. 12 ",
    "Label": "ООО \"ДЕНТБУРГ\"",
    "Id": 842
  },
  {
    "Latitude": "56.048922",
    "Longitude": "92.915175",
    "Address": "660098, край Красноярский, г. Красноярск, ул. Авиаторов, д. 42 оф, 210, ",
    "Label": "ООО \"Улыбка будущего\"",
    "Id": 843
  },
  {
    "Latitude": "56.049123",
    "Longitude": "92.919074",
    "Address": "край Красноярский, г. Красноярск, ул. Молокова, д. 16, корп. 349",
    "Label": "ООО \"Витар\"",
    "Id": 844
  },
  {
    "Latitude": "56.053623",
    "Longitude": "92.911366",
    "Address": "660017, край Красноярский, г. Красноярск, ул. Алексеева, д. 24 ",
    "Label": "ООО \"Дент Арт\"",
    "Id": 845
  },
  {
    "Latitude": "56.036653",
    "Longitude": "92.910585",
    "Address": "660135, г. Красноярск, ул. Весны, д. 6",
    "Label": "ООО ПМКК \"Профи-стом\"",
    "Id": 846
  },
  {
    "Latitude": "56.037307",
    "Longitude": "92.898853",
    "Address": "660135, край Красноярский, г. Красноярск, ул. Молокова, д. 33 ",
    "Label": "ООО ЛНУПЦ \"МедиДент\"",
    "Id": 847
  },
  {
    "Latitude": "56.030376",
    "Longitude": "92.919173",
    "Address": "край Красноярский, г . Красноярск, ул. Никитина, д. 3",
    "Label": "ООО \"Арион\"",
    "Id": 848
  },
  {
    "Latitude": "56.01385",
    "Longitude": "92.954252",
    "Address": "край Красноярский, г. Красноярск, пер. Сибирский, д. 6",
    "Label": "ООО \"Арион\"",
    "Id": 849
  },
  {
    "Latitude": "56.004494",
    "Longitude": "92.940652",
    "Address": "край Красноярский, г. Красноярск, пр-кт имени газеты Красноярский Рабочий, д. 81",
    "Label": "ООО \"Арион\"",
    "Id": 850
  },
  {
    "Latitude": "56.041275",
    "Longitude": "92.937804",
    "Address": "край Красноярский, г. Красноярск, ул. Партизана Железняка, д. 50",
    "Label": "ООО \"Арион\"",
    "Id": 851
  },
  {
    "Latitude": "56.112156",
    "Longitude": "92.92017",
    "Address": "край Красноярский, г. Красноярск, ул. Славы, д. 9",
    "Label": "ООО \"Арион\"",
    "Id": 852
  },
  {
    "Latitude": "56.049048",
    "Longitude": "92.910684",
    "Address": "край Красноярский, г. Красноярск, ул. Алексеева, д. 39",
    "Label": "ООО \"Арион\"",
    "Id": 853
  },
  {
    "Latitude": "56.011243",
    "Longitude": "92.882378",
    "Address": "край Красноярский, г. Красноярск, ул. Карла Маркса, д. 34",
    "Label": "ООО \"Арион\"",
    "Id": 854
  },
  {
    "Latitude": "56.01316",
    "Longitude": "92.859794",
    "Address": "край Красноярский, г. Красноярск, ул. Ленина, д. 104",
    "Label": "ООО \"Арион\"",
    "Id": 855
  },
  {
    "Latitude": "56.060444",
    "Longitude": "92.919397",
    "Address": "край Красноярский, г. Красноярск, ул. 9 Мая, д. 51, стр. 222",
    "Label": "ООО \"Арион\"",
    "Id": 856
  },
  {
    "Latitude": "56.023379",
    "Longitude": "92.817151",
    "Address": "край Красноярский, г. Красноярск, пр-кт Свободный, д. 49",
    "Label": "ООО \"Арион\"",
    "Id": 857
  },
  {
    "Latitude": "56.03876",
    "Longitude": "92.871194",
    "Address": "край Красноярский, г. Красноярск, ул. Чернышевского, д. 75",
    "Label": "ООО \"Арион\"",
    "Id": 858
  },
  {
    "Latitude": "56.061615",
    "Longitude": "92.945143",
    "Address": "край Красноярский, г. Красноярск, ул. Ястынская, д. 11",
    "Label": "ООО \"Арион\"",
    "Id": 859
  },
  {
    "Latitude": "56.06666",
    "Longitude": "92.938792",
    "Address": "край Красноярский, г. Красноярск, ул. Шумяцкого, д. 2",
    "Label": "ООО \"Арион\"",
    "Id": 860
  },
  {
    "Latitude": "56.012803",
    "Longitude": "92.815193",
    "Address": "г. Красноярск, ул. Копылова, д. 66",
    "Label": "ООО \"Денталь\"",
    "Id": 861
  },
  {
    "Latitude": "56.045368",
    "Longitude": "92.914277",
    "Address": "край Красноярский, г Красноярск, ул. Молокова, д. 1, корп. 1",
    "Label": "ООО Центр Стоматологии \"АСТРЕЯ\"",
    "Id": 862
  },
  {
    "Latitude": "56.016733",
    "Longitude": "92.812165",
    "Address": "край Красноярский, г. Красноярск, ул. Ладо Кецховели, д. 71, офис 170",
    "Label": "ООО Центр Стоматологии \"АСТРЕЯ\"",
    "Id": 863
  },
  {
    "Latitude": "55.549562",
    "Longitude": "94.698861",
    "Address": "край Красноярский, пос. Саянский, ул. Комсомольская, д. 1",
    "Label": "ЧУЗ «РЖД-МЕДИЦИНА\" ПГТ САЯНСКИЙ»",
    "Id": 864
  },
  {
    "Latitude": "56.027982",
    "Longitude": "92.917744",
    "Address": "660022, край Красноярский, г. Красноярск, ул. им. Никитина, д. 1В ",
    "Label": "КГБУЗ \"Красноярская краевая офтальмологическая клиническая больница им. профессора П.Г. Макарова\"",
    "Id": 865
  },
  {
    "Latitude": "55.304108",
    "Longitude": "89.827414",
    "Address": "край красноярский, г. Ужур, ул. Железнодорожная, д. 12",
    "Label": "ЧУЗ \"РЖД-Медицина\" г. Ужур",
    "Id": 866
  },
  {
    "Latitude": "55.994703",
    "Longitude": "92.813351",
    "Address": "660058, край Красноярский, г. Красноярск, ул. Ломоносова, д. 47 ",
    "Label": "ЧУЗ \"Клиническая больница \"РЖД-Медицина\" города Красноярск\"",
    "Id": 867
  },
  {
    "Latitude": "56.001011",
    "Longitude": "92.830293",
    "Address": "г. Красноярск, ул. Ломоносова, д. 26",
    "Label": "ЧУЗ \"Клиническая больница \"РЖД-Медицина\" города Красноярск\"",
    "Id": 868
  },
  {
    "Latitude": "56.008807",
    "Longitude": "92.833474",
    "Address": "край Красноярский, г. Красноярск, ул. Вокзальная, д. 25",
    "Label": "ЧУЗ \"Клиническая больница \"РЖД-Медицина\" города Красноярск\"",
    "Id": 869
  },
  {
    "Latitude": "53.821347",
    "Longitude": "91.333943",
    "Address": "г. Черногорск, ул. Линейная, д. 251, стр. А",
    "Label": "НУЗ ДЦ \"Медиком\"",
    "Id": 870
  },
  {
    "Latitude": "56.04572",
    "Longitude": "92.904602",
    "Address": "край Красноярский, г Красноярск, ул 78 Добровольческой Бригады, д 21",
    "Label": "ООО \"Доктор\"",
    "Id": 871
  },
  {
    "Latitude": "56.062851",
    "Longitude": "92.947065",
    "Address": "край Красноярский, г. Красноярск, ул. Ястынская, д. 19А",
    "Label": "ООО \"Доктор\"",
    "Id": 872
  },
  {
    "Latitude": "56.009461",
    "Longitude": "92.883923",
    "Address": "660017, край Красноярский, г. Красноярск, ул. Урицкого, д. 31 ",
    "Label": "ООО \"Добрый доктор\"",
    "Id": 873
  },
  {
    "Latitude": "56.078332",
    "Longitude": "93.002366",
    "Address": "край Красноярский, г. Красноярск, ул. Пограничников, д. 42, стр. 36",
    "Label": "ООО \"РУСАЛ МЦ\"",
    "Id": 874
  },
  {
    "Latitude": "56.008314",
    "Longitude": "92.87591",
    "Address": "край Красноярский, г. Красноярск, ул. Бограда, д. 13",
    "Label": "ФГБУ \"Федеральный сибирский научно-клинический центр\" ФМБА России",
    "Id": 875
  },
  {
    "Latitude": "55.997869",
    "Longitude": "92.930986",
    "Address": "край Красноярский, г. Красноярск, ул. Вавилова, д. 29",
    "Label": "ФГБУ \"Федеральный сибирский научно-клинический центр\" ФМБА России",
    "Id": 876
  },
  {
    "Latitude": "55.984456",
    "Longitude": "92.751206",
    "Address": "край Красноярский, г. Красноярск, ул. Академгородок, д. 15а",
    "Label": "ФГБУ \"Федеральный сибирский научно-клинический центр\" ФМБА России",
    "Id": 877
  },
  {
    "Latitude": "56.011927",
    "Longitude": "92.882396",
    "Address": "край Красноярский, г . Красноярск, ул. Карла Маркса, д. 34Б",
    "Label": "ФГБУ \"Федеральный сибирский научно-клинический центр\" ФМБА России",
    "Id": 878
  },
  {
    "Latitude": "56.014529",
    "Longitude": "92.963163",
    "Address": "край Красноярский, г Красноярск, ул. Коломенская, д. 26",
    "Label": "ФГБУ \"Федеральный сибирский научно-клинический центр\" ФМБА России",
    "Id": 879
  },
  {
    "Latitude": "56.006799",
    "Longitude": "92.761276",
    "Address": "г. Красноярск, пр-кт Свободный, д. 82, стр. 13",
    "Label": "ФГБУ \"Федеральный сибирский научно-клинический центр\" ФМБА России",
    "Id": 880
  },
  {
    "Latitude": "56.115444",
    "Longitude": "94.585997",
    "Address": "г. Красноярск, ул. Мира, д. 5",
    "Label": "ФГБОУ ВО КрасГМУ им.проф. В.Ф.Войно-Ясенецкого Минздрава России",
    "Id": 881
  },
  {
    "Latitude": "56.033394",
    "Longitude": "92.916675",
    "Address": "660135, край Красноярский, г. Красноярск, ул. Взлетная, д. 5, стр. 1 ",
    "Label": "ООО \"Ортопедический медицинский центр\"",
    "Id": 882
  },
  {
    "Latitude": "55.994078",
    "Longitude": "92.892089",
    "Address": "г. Красноярск, ул. Красноярск рабочий, д. 172",
    "Label": "ООО \"Клиника современной трихологии\"",
    "Id": 883
  },
  {
    "Latitude": "55.983192",
    "Longitude": "92.860333",
    "Address": "660093, край Красноярский, г. Красноярск, ул. Семафорная, д. 189Б ",
    "Label": "ООО Эмлайн  (Клиника Тисленко)",
    "Id": 884
  },
  {
    "Latitude": "56.00692",
    "Longitude": "92.962508",
    "Address": "660069, край Красноярский, г. Красноярск, ул. Мичурина, д. 13 ",
    "Label": "ООО \"ОРТИМЕД\"",
    "Id": 885
  },
  {
    "Latitude": "55.987815",
    "Longitude": "92.955043",
    "Address": "660094, г. Красноярск, ул. Кутузова, д. 71",
    "Label": "КГБУЗ \"Красноярская межрайонная клиническая больница №4\"",
    "Id": 886
  },
  {
    "Latitude": "55.982829",
    "Longitude": "92.863657",
    "Address": "660012, край Красноярский, г. Красноярск, ул. Семафорная, д. 191",
    "Label": "ООО \"Медиаком\"",
    "Id": 887
  },
  {
    "Latitude": "56.010946",
    "Longitude": "92.863378",
    "Address": "г. Красноярск, ул. Кирова, д. 19",
    "Label": "ООО \"ОМЕКС-Институт Медицинской Косметологии\"",
    "Id": 888
  },
  {
    "Latitude": "56.011877",
    "Longitude": "92.888307",
    "Address": "г. Красноярск, ул. Карла Маркса, д. 14",
    "Label": "ООО \"ФОРТУНА-3\" (Триумф)",
    "Id": 889
  },
  {
    "Latitude": "56.070565",
    "Longitude": "92.932225",
    "Address": "край Красноярский, г. Красноярск, ул. Шумяцкого, д. 12",
    "Label": "ООО \"ПрофМедЦентр\"",
    "Id": 890
  },
  {
    "Latitude": "55.948866",
    "Longitude": "92.838765",
    "Address": "660071, край Красноярский, г. Красноярск, ул. Базайская, д. 234А ",
    "Label": "ООО \"ТакМак-Спа\"",
    "Id": 891
  },
  {
    "Latitude": "56.004333",
    "Longitude": "92.937184",
    "Address": "660095, край Красноярский, г. Красноярск, пр-кт им. Газеты Красноярский рабочий, д. 106 ",
    "Label": "ООО\"Андролого-гинекологическая клиника\"",
    "Id": 892
  },
  {
    "Latitude": "56.024667",
    "Longitude": "92.910181",
    "Address": "660022, край Красноярский, г. Красноярск, ул. Партизана Железняка, д. 3Г ",
    "Label": "Научно-исследовательский институт медицинских проблем Севера - обособленное подразделение ФИЦ КНЦ СО РАН",
    "Id": 893
  },
  {
    "Latitude": "56.01396",
    "Longitude": "92.852033",
    "Address": "г. Красноярск, ул. Красной Армии, д. 16А,",
    "Label": "Научно-исследовательский институт медицинских проблем Севера - обособленное подразделение ФИЦ КНЦ СО РАН",
    "Id": 894
  },
  {
    "Latitude": "56.033108",
    "Longitude": "92.886465",
    "Address": "ул. Шахтеров, д. 25, корп. 1",
    "Label": "Научно-исследовательский институт медицинских проблем Севера - обособленное подразделение ФИЦ КНЦ СО РАН",
    "Id": 895
  },
  {
    "Latitude": "55.96078",
    "Longitude": "92.382591",
    "Address": "край Красноярский, г. Дивногорск, ул. Школьная, д. 9",
    "Label": "ООО \"ЮМЕД\"",
    "Id": 896
  },
  {
    "Latitude": "56.062851",
    "Longitude": "92.947065",
    "Address": "край Красноярский, г. Красноярск, ул. Ястынская, д. 19А, корп. 215",
    "Label": "ООО \"Клиника доктора Лаврова\"",
    "Id": 897
  },
  {
    "Latitude": "56.014302",
    "Longitude": "92.959669",
    "Address": "край Красноярский, г. Красноярск, ул. Мичурина, д. 2Ж",
    "Label": "ООО \"Профмед\"(Элайф)",
    "Id": 898
  },
  {
    "Latitude": "56.062479",
    "Longitude": "92.937337",
    "Address": "край Красноярский, г. Красноярск, ул. Мате Залки, д. 33, корп. 149",
    "Label": "Общество с ограниченной ответственностью \"ЛАД\"",
    "Id": 899
  },
  {
    "Latitude": "56.006572",
    "Longitude": "92.837193",
    "Address": "660021, край Красноярский, г. Красноярск, ул. Бограда, д. 132",
    "Label": "ООО \"Медицинский центр защиты здоровья\"",
    "Id": 900
  },
  {
    "Latitude": "55.995136",
    "Longitude": "92.896508",
    "Address": "660093, край Красноярский, г. Красноярск, ул. Красноярск рабочий, д. 166, офис 565",
    "Label": "ООО \"Медобслуживание\"(ВАШЕ ЗДОРОВЬЕ)",
    "Id": 901
  },
  {
    "Latitude": "56.053623",
    "Longitude": "92.911366",
    "Address": "край Красноярский, г. Красноярск, ул. Алексеева, д. 24",
    "Label": "ООО \"Перспектива\" (Инвитро Железногорск)",
    "Id": 902
  },
  {
    "Latitude": "56.053236",
    "Longitude": "92.982881",
    "Address": "660111, край Красноярский, г. Красноярск, пр-кт Ульяновский, д. 4Д ",
    "Label": "ООО \"Центр Амбулаторной Медицины\"",
    "Id": 903
  },
  {
    "Latitude": "56.010569",
    "Longitude": "92.852572",
    "Address": "г. Красноярск, пр-кт Мира, д. 93, каб. 15,14,13",
    "Label": "ООО \"Центр пластической хирургии\"",
    "Id": 904
  },
  {
    "Latitude": "56.019576",
    "Longitude": "92.824877",
    "Address": "край Красноярский, г. Красноярск, ул. Яковлева, д. 1",
    "Label": "ООО \"МЕДИСТАР\"",
    "Id": 905
  },
  {
    "Latitude": "56.033248",
    "Longitude": "92.924203",
    "Address": "край Красноярский, г. Красноярск, ул. Партизана Железняка, д. 19Д",
    "Label": "ООО ОЦ \"Восточный лекарь\"",
    "Id": 906
  },
  {
    "Latitude": "56.01543",
    "Longitude": "92.851215",
    "Address": "г. Красноярск, ул. Ады Лебедевой, д. 116",
    "Label": "ООО \"СПА-Люкс\"",
    "Id": 907
  },
  {
    "Latitude": "56.29531",
    "Longitude": "90.525845",
    "Address": "край Красноярский, г. Ачинск, пер. Новосибирский, д. 73",
    "Label": "ООО \"Медэкспресс\"",
    "Id": 908
  },
  {
    "Latitude": "56.011092",
    "Longitude": "92.878686",
    "Address": "г. Красноярск, ул. Карла Маркса, д. 44а",
    "Label": "ООО Оздоровительный центр \"Виталена\"",
    "Id": 909
  },
  {
    "Latitude": "56.052064",
    "Longitude": "92.911519",
    "Address": "660113, край Красноярский, г. Красноярск, ул. Алексеева, д. 22,  -",
    "Label": "ООО Оздоровительный центр \"Виталена\"",
    "Id": 910
  },
  {
    "Latitude": "56.044463",
    "Longitude": "92.918688",
    "Address": "г. Красноярс, ул. Авиаторов, д. 29",
    "Label": "ООО Маммологический центр \"Здоровье женщины\"",
    "Id": 911
  },
  {
    "Latitude": "55.995211",
    "Longitude": "92.925542",
    "Address": "660025, край Красноярский, г. Красноярск, ул. Затонская, д. 11 ",
    "Label": "ООО Маммологический центр \"Здоровье женщины\"",
    "Id": 912
  },
  {
    "Latitude": "56.012627",
    "Longitude": "92.860701",
    "Address": "край Красноярский, г Красноярск, ул Ленина, д 111",
    "Label": "Европейский медицинский центр",
    "Id": 913
  },
  {
    "Latitude": "56.009869",
    "Longitude": "92.880321",
    "Address": "660049, край Красноярский, г. Красноярск, ул. Урицкого, д. 50 ",
    "Label": "ООО \"АбсолютМед\"",
    "Id": 914
  },
  {
    "Latitude": "56.053894",
    "Longitude": "92.909794",
    "Address": "660098, край Красноярский, г. Красноярск, ул. Авиаторов, д. 64 ",
    "Label": "ООО \"КрасМедКлиник\"",
    "Id": 915
  },
  {
    "Latitude": "55.989899",
    "Longitude": "92.852069",
    "Address": " Ярыгинская набережная,  29",
    "Label": "ООО \"Санталь\" (САНТЕМ)",
    "Id": 916
  },
  {
    "Latitude": "56.009074",
    "Longitude": "92.814474",
    "Address": "г. Красноярск, ул. Ладо Кецховели, д. 20",
    "Label": "ООО \"Санталь\" (САНТЕМ)",
    "Id": 917
  },
  {
    "Latitude": "56.041602",
    "Longitude": "92.874086",
    "Address": "край Красноярский, г. Красноярск, ул. Чернышевского, д. 120, стр. 144",
    "Label": "ООО \"Санталь\" (САНТЕМ)",
    "Id": 918
  },
  {
    "Latitude": "56.032856",
    "Longitude": "92.92406",
    "Address": "г. Красноярск, ул. Партизана Железняка, д. 21, корп. а",
    "Label": "ООО \"Центр Современной Кардиологии\"",
    "Id": 919
  },
  {
    "Latitude": "56.063002",
    "Longitude": "92.917538",
    "Address": "г. Красноярск, ул. Урванцева, д. 23, корп. 31",
    "Label": "ООО \"Центр Современной Кардиологии\"",
    "Id": 920
  },
  {
    "Latitude": "56.014896",
    "Longitude": "92.819154",
    "Address": "край Красноярский, г Красноярск, ул Менжинского, д 11А",
    "Label": "ООО \"Центр Современной Кардиологии\"",
    "Id": 921
  },
  {
    "Latitude": "55.996389",
    "Longitude": "92.896931",
    "Address": "г. Красноярск, ул. Капитанская, д. 6, вл. 242",
    "Label": "ООО \"Центр Современной Кардиологии\"",
    "Id": 922
  },
  {
    "Latitude": "56.014896",
    "Longitude": "92.819154",
    "Address": "660001, край Красноярский, г. Красноярск, ул. Менжинского, д. 11А ",
    "Label": "ООО \"Центр Современной Кардиологии\"",
    "Id": 923
  },
  {
    "Latitude": "56.053713",
    "Longitude": "92.948",
    "Address": "г. Красноярск, ул. Воронова, д. 39б",
    "Label": "ООО \"ВлаДКо\"(натали бьюти)",
    "Id": 924
  },
  {
    "Latitude": "56.000754",
    "Longitude": "92.920889",
    "Address": "г. Красноярск, ул. Красноярский рабочий, д. 150, стр. 48",
    "Label": "ООО \"АртраВита\"",
    "Id": 925
  },
  {
    "Latitude": "56.038665",
    "Longitude": "92.908456",
    "Address": "край Красноярский, г. Красноярск, ул. Весны, д. 7Д",
    "Label": "ООО \"ВОКА-СЕРВИС\"",
    "Id": 926
  },
  {
    "Latitude": "56.019656",
    "Longitude": "92.801583",
    "Address": "край Красноярский, г. Красноярск, ул. Баумана, д. 7",
    "Label": "ООО \"Ситилаб-Красноярск\"(ООО \"ИХМИ\")",
    "Id": 927
  },
  {
    "Latitude": "56.021266",
    "Longitude": "92.822837",
    "Address": "край Красноярский, г. Красноярск, ул. Толстого, д. 21",
    "Label": "ООО \"Ситилаб-Красноярск\"(ООО \"ИХМИ\")",
    "Id": 928
  },
  {
    "Latitude": "45.041457",
    "Longitude": "41.989942",
    "Address": "ул. Ленина,  118",
    "Label": "ООО \"Ситилаб-Красноярск\"(ООО \"ИХМИ\")",
    "Id": 929
  },
  {
    "Latitude": "56.025537",
    "Longitude": "92.904342",
    "Address": "ул. Партизана Железняка,  2Г",
    "Label": "ООО \"Ситилаб-Красноярск\"(ООО \"ИХМИ\")",
    "Id": 930
  },
  {
    "Latitude": "56.005999",
    "Longitude": "92.943661",
    "Address": "край Красноярский, г. Красноярск, пр-кт Красноярский рабочий, д. 100",
    "Label": "ООО \"Ситилаб-Красноярск\"(ООО \"ИХМИ\")",
    "Id": 931
  },
  {
    "Latitude": "56.06079",
    "Longitude": "92.905132",
    "Address": "край Красноярский, г. Красноярск, пер. Светлогорский, д. 8",
    "Label": "ООО \"Ситилаб-Красноярск\"(ООО \"ИХМИ\")",
    "Id": 932
  },
  {
    "Latitude": "55.996701",
    "Longitude": "92.898062",
    "Address": "660017, край Красноярский, г. Красноярск, ул. Навигационная, д. 4 ",
    "Label": "ООО \"Ситилаб-Красноярск\"(ООО \"ИХМИ\")",
    "Id": 933
  },
  {
    "Latitude": "56.030819",
    "Longitude": "92.911034",
    "Address": "г. Красноярск, ул. Аэровокзальная, д. 19",
    "Label": "ООО Альтермед(ИПМ)",
    "Id": 934
  },
  {
    "Latitude": "56.056367",
    "Longitude": "92.911214",
    "Address": "г. Красноярск, ул. 9 мая, д. 63",
    "Label": "ООО ЛДК \"Медицина компьютерных технологий\"",
    "Id": 935
  },
  {
    "Latitude": "55.987402",
    "Longitude": "92.855285",
    "Address": "край Красноярский, г Красноярск, ул Карамзина, д 23Г",
    "Label": "ООО ЛДК \"Медицина компьютерных технологий\"",
    "Id": 936
  },
  {
    "Latitude": "56.041622",
    "Longitude": "92.899931",
    "Address": "660077, край Красноярский, г. Красноярск, ул. Батурина, д. 19 ",
    "Label": "ООО ЛДК \"Медицина компьютерных технологий\"",
    "Id": 937
  },
  {
    "Latitude": "56.012737",
    "Longitude": "92.811923",
    "Address": "г. Красноярск, ул. Копылова, д. 70, корп. 66",
    "Label": "МЦ \"Оптимус\"",
    "Id": 938
  },
  {
    "Latitude": "56.053236",
    "Longitude": "92.982881",
    "Address": "г. Красноярск, пр-кт Ульяновский, д. 4, корп. Д",
    "Label": "ООО \"Центр амбулаторной гастроэнтерологии\"",
    "Id": 939
  },
  {
    "Latitude": "56.061806",
    "Longitude": "92.907117",
    "Address": "660125, край Красноярский, г. Красноярск, пер. Светлогорский, д. 2 ",
    "Label": "ООО \"Центр амбулаторной гастроэнтерологии\"",
    "Id": 940
  },
  {
    "Latitude": "56.062811",
    "Longitude": "92.979989",
    "Address": "край Красноярский, г. Красноярск, ул. Джамбьская, д. 19",
    "Label": "ООО \"Клиника Новых Технологий\"",
    "Id": 941
  },
  {
    "Latitude": "56.009562",
    "Longitude": "92.845942",
    "Address": "Красноярск, ул. Карла Маркса 124",
    "Label": "Университетская клиника Войно-Ясенецкого",
    "Id": 942
  },
  {
    "Latitude": "56.023923",
    "Longitude": "92.905824",
    "Address": "660022, край Красноярский, г. Красноярск, ул. Партизана Железняка, д. 1 ",
    "Label": "ГБОУ ВПО КрасГМУ им. проф. В.Ф. Войно-Ясенецкого Минздравсоцразвития России",
    "Id": 943
  },
  {
    "Latitude": "56.032373",
    "Longitude": "92.924644",
    "Address": "край Красноярский, г. Красноярск, ул. Партизана Железняка, д. 21, корп. Д",
    "Label": "Клиника ФМ",
    "Id": 944
  },
  {
    "Latitude": "56.042421",
    "Longitude": "92.904234",
    "Address": "край Красноярский, г. Красноярск, ул. Молокова, д. 40, офис 321",
    "Label": "ООО \"ЦЕНТР ЛЕЧЕНИЯ ПОЗВОНОЧНИКА И СУСТАВОВ \"КРАСНОЯРСК \"ДОКТОР ОСТ\"",
    "Id": 945
  },
  {
    "Latitude": "55.993922",
    "Longitude": "92.778901",
    "Address": "г. Красноярск, ул. Академика Киренского, д. 2, корп. А",
    "Label": "КГБУЗ \"Красноярский Краевой Клинический Центр Охраны Материнства и Детства\"",
    "Id": 946
  },
  {
    "Latitude": "56.034325",
    "Longitude": "92.902509",
    "Address": "660135, край Красноярский, г. Красноярск, ул. Взлетная, д. 26Б ",
    "Label": "ООО \"БиКей Медика\"",
    "Id": 947
  },
  {
    "Latitude": "56.026453",
    "Longitude": "92.91399",
    "Address": "660022, край Красноярский, г. Красноярск, ул. Партизана Железняка, д. 3А ",
    "Label": "КГБУЗ \"Краевая клиническая больница\"",
    "Id": 948
  },
  {
    "Latitude": "56.016481",
    "Longitude": "92.799122",
    "Address": "г. Красноярск, ул. Михаила Годенко, д. 6, стр. 53",
    "Label": "ООО \"ЦПМ КрасОптима\"",
    "Id": 949
  },
  {
    "Latitude": "56.012269",
    "Longitude": "92.848044",
    "Address": "край Красноярский, г Красноярск, ул. Ленина, д. ом 35,  -",
    "Label": "ООО \"КрасМедКлиник плюс\"",
    "Id": 950
  },
  {
    "Latitude": "55.997507",
    "Longitude": "92.901674",
    "Address": "край Красноярский, г Красноярск, ул Навигационная, д 7",
    "Label": "ООО \" Доктор Вера\"",
    "Id": 951
  },
  {
    "Latitude": "55.998901",
    "Longitude": "92.799203",
    "Address": "660074, край Красноярский, г. Красноярск, ул. Академика, киренского, д. 32 ",
    "Label": "ООО Академия Здоровья \"Эдельвейс\"",
    "Id": 952
  },
  {
    "Latitude": "56.067851",
    "Longitude": "92.933842",
    "Address": "660118, край Красноярский, г. Красноярск, ул. 9, Мая, д. 19А ",
    "Label": "ООО \"Клиника в Северном\"",
    "Id": 953
  },
  {
    "Latitude": "55.985378",
    "Longitude": "92.833806",
    "Address": "660012, Красноярск, Складская, д.28",
    "Label": "ООО \"Лечебно-диагностический центр ФармСибКо\"",
    "Id": 954
  },
  {
    "Latitude": "60.376455",
    "Longitude": "93.029953",
    "Address": "г. Северо-Енисейский, ул. Советская, д. 2",
    "Label": "КГБУЗ Северо-Енисейская РБ",
    "Id": 955
  },
  {
    "Latitude": "56.021709",
    "Longitude": "92.888118",
    "Address": "660021, край Красноярский, г. Красноярск, ул. Красная площадь, д. 9А ",
    "Label": "ООО Семейная клиника\"Арника\"",
    "Id": 956
  },
  {
    "Latitude": "56.025075",
    "Longitude": "92.807458",
    "Address": "г. Красноярск, ул. Мечникова, д. 49",
    "Label": "ООО \"КИТ\"",
    "Id": 957
  },
  {
    "Latitude": "56.011791",
    "Longitude": "92.842313",
    "Address": "660021, край Красноярский, г. Красноярск, ул. Ленина, д. 151 ",
    "Label": "ООО \"Клиника восстановительной медицины \"Бионика\"",
    "Id": 958
  },
  {
    "Latitude": "56.05983",
    "Longitude": "92.928075",
    "Address": "660118, край Красноярский, г. Красноярск, ул. Урванцева, д. 8а, корп. 189",
    "Label": "ООО \"ПИК ПАНАЦЕЯ\"",
    "Id": 959
  },
  {
    "Latitude": "56.034843",
    "Longitude": "92.919092",
    "Address": "край Красноярский, г. Красноярск, ул. Октябрьская, д. 1",
    "Label": "ООО \"Авит\" (узи на Взлетке)",
    "Id": 960
  },
  {
    "Latitude": "55.977204",
    "Longitude": "92.856875",
    "Address": "660078, край Красноярский, г. Красноярск, ул. 60 лет Октября, д. 50 ",
    "Label": "ООО МЦГЭР \"Три сердца\"",
    "Id": 961
  },
  {
    "Latitude": "56.031096",
    "Longitude": "92.917691",
    "Address": "край Красноярский, г. Красноярск, ул. Партизана Железняка, д. 26А, офис 78",
    "Label": "ООО \"Сибирский Центр Лазерной Хирургии\" (Альфа клиник)",
    "Id": 962
  },
  {
    "Latitude": "55.992065",
    "Longitude": "92.75673",
    "Address": "г. Красноярск, ул. Академгородок, д. 18, кв. 66",
    "Label": "ООО \"Вита-Центр\"",
    "Id": 963
  },
  {
    "Latitude": "56.056372",
    "Longitude": "92.921077",
    "Address": "660118, г. Красноярск, ул. Водопьянова, дом 32, пом.66",
    "Label": "ООО \"Медицинский центр НовоМед\"",
    "Id": 964
  },
  {
    "Latitude": "56.025472",
    "Longitude": "92.783267",
    "Address": "660062, край Красноярский, г. Красноярск, ул. Высотная, д. 2\/1 ",
    "Label": "ООО Лечебно-диагностический центр \"Три сердца\"",
    "Id": 965
  },
  {
    "Latitude": "56.018439",
    "Longitude": "92.973835",
    "Address": "г. Красноярск, ул. Инструментальная, д. 12",
    "Label": "ООО \"МЕДЮНИОН\"",
    "Id": 966
  },
  {
    "Latitude": "56.017467",
    "Longitude": "92.77582",
    "Address": "край Красноярский, г. Красноярск, ул. Курчатова, д. 17, стр. 15-",
    "Label": "ООО \"МЕДЮНИОН\"",
    "Id": 967
  },
  {
    "Latitude": "56.043693",
    "Longitude": "92.917205",
    "Address": "660077, край Красноярский, г. Красноярск, ул. Авиаторов, д. 33 ",
    "Label": "ООО \"Центр эндохирургических технологий\"",
    "Id": 968
  },
  {
    "Latitude": "55.980362",
    "Longitude": "92.703451",
    "Address": "г. Красноярск, ул. Живописная, д. 1\/1, каб. 58",
    "Label": "ООО \"ВЕКТОР\" (Veka)",
    "Id": 969
  },
  {
    "Latitude": "56.015737",
    "Longitude": "92.87149",
    "Address": "г. Красноярск, ул. Вейнбаума, д. 38",
    "Label": "МЦ НА ВЕЙНБАУМА",
    "Id": 970
  },
  {
    "Latitude": "56.020994",
    "Longitude": "92.883689",
    "Address": "край Красноярский, г. Красноярск, ул. Енисейская, д. 3д, корп. 1",
    "Label": "ООО \"Авекс\" (Первый Меридиан)",
    "Id": 971
  },
  {
    "Latitude": "56.007443",
    "Longitude": "92.874625",
    "Address": "660049, край Красноярский, г. Красноярск, ул. Дубровинского, д. 82 ",
    "Label": "ООО \"САН-МАРКЕТ\"",
    "Id": 972
  },
  {
    "Latitude": "56.013895",
    "Longitude": "92.869667",
    "Address": "660049, край Красноярский, г. Красноярск, ул. Ленина, д. 74Г ",
    "Label": "ООО \"Ирис\"",
    "Id": 973
  },
  {
    "Latitude": "55.980246",
    "Longitude": "92.69993",
    "Address": "г. Красноярск, ул. Живописная, д. 1\/5, стр. 44\/1",
    "Label": "ООО \"Доктор Здоровье\" (Dr.Sante)",
    "Id": 974
  },
  {
    "Latitude": "56.059916",
    "Longitude": "92.97282",
    "Address": "край Красноярский, г Красноярск, ул. Быковского, д. 12",
    "Label": "ООО \"Диалог плюс\"",
    "Id": 975
  }
]
